,Venue,venue_id,Venue Latitude,Venue Longitude,Venue Category,Venue Category Plural,Venue Category Short,sub_id
0,tömbeki,56c6ef7ecd107c4ed69012e2,37.68387,37.735969,Café,Cafés,Café,4bf58dd8d48988d16d941735
1,tömbeki,56c6ef7ecd107c4ed69012e2,37.68387,37.735969,Café,Cafés,Café,4bf58dd8d48988d16d941735
2,Marugame Udon,5a3b267d4940bc2abc94d088,37.72753502992446,-122.47614774426498,Udon Restaurant,Udon Restaurants,Udon,55a59bace4b013909087cb2a
3,In-N-Out Burger,457c6a6df964a520093f1fe3,37.68826935148615,-122.47197300195694,Burger Joint,Burger Joints,Burgers,4bf58dd8d48988d16c941735
4,Shihlin Taiwan Street Snacks 士林臺灣小吃,5b09e2e398fbfc002c028929,37.727817534627626,-122.47646649433597,Taiwanese Restaurant,Taiwanese Restaurants,Taiwanese,52af3b813cf9994f4e043c04
5,Blaze Pizza,55145ef3498e4d9691a639d5,37.727931,-122.476536,Pizza Place,Pizza Places,Pizza,4bf58dd8d48988d1ca941735
6,85C Bakery Cafe - Stonestown,5b942774deb4950025220c76,37.72791847111096,-122.47628171618449,Bakery,Bakeries,Bakery,4bf58dd8d48988d16a941735
7,McDonald's,4a8972e5f964a5200b0820e3,37.7264084,-122.4763127,Fast Food Restaurant,Fast Food Restaurants,Fast Food,4bf58dd8d48988d16e941735
8,Starbucks,4310fe80f964a52051271fe3,37.74474068,-122.4526744,Coffee Shop,Coffee Shops,Coffee Shop,4bf58dd8d48988d1e0931735
9,Starbucks,4abfc3d1f964a5200f9220e3,37.699575,-122.481762,Coffee Shop,Coffee Shops,Coffee Shop,4bf58dd8d48988d1e0931735
10,Marketplace Cafe,573b2c2e38faeff59fd2bb9a,37.726605654060464,-122.47750103473663,Café,Cafés,Café,4bf58dd8d48988d16d941735
11,Stonestown Galleria Food Court,4b7715bff964a520d27b2ee3,37.72803126482387,-122.47708797454834,Food Court,Food Courts,Food Court,4bf58dd8d48988d120951735
12,Peet's Coffee & Tea,5227b1b08bfdf21a788fc5a0,37.727715,-122.476555,Coffee Shop,Coffee Shops,Coffee Shop,4bf58dd8d48988d1e0931735
13,Philz Coffee,56eeb771498e0692c105a6f7,37.723478884185766,-122.45374876198406,Coffee Shop,Coffee Shops,Coffee Shop,4bf58dd8d48988d1e0931735
14,Original Joe's Westlake,56a2acbd498ee1a54d04a90b,37.70155964783083,-122.48549401760101,Italian Restaurant,Italian Restaurants,Italian,4bf58dd8d48988d110941735
15,Starbucks,49e262daf964a52012621fe3,37.73966759184441,-122.46727108843436,Coffee Shop,Coffee Shops,Coffee Shop,4bf58dd8d48988d1e0931735
16,Boudin Bakery Café Stonestown,4aecaa99f964a52019ca21e3,37.728669,-122.476886,Bakery,Bakeries,Bakery,4bf58dd8d48988d16a941735
17,Olive Garden,46d715faf964a5206c4a1fe3,37.72743193152167,-122.47621065614784,Italian Restaurant,Italian Restaurants,Italian,4bf58dd8d48988d110941735
18,Jollibee,4b14f8a6f964a5209ca723e3,37.69727551178855,-122.46374254371321,Fast Food Restaurant,Fast Food Restaurants,Fast Food,4bf58dd8d48988d16e941735
19,See's Candies,4b5ba39ff964a520db0c29e3,37.72787026212226,-122.47695621960317,Candy Store,Candy Stores,Candy Store,4bf58dd8d48988d117951735
20,"Andytown Roastery, Training Lab & Coffee Supply",58b76a25fc5a5f1dcd7b248d,37.742142085707165,-122.49856601193528,Coffee Shop,Coffee Shops,Coffee Shop,4bf58dd8d48988d1e0931735
21,Panda Express,51feb67c498ee2b1cc4f9071,37.69899267171932,-122.48228128326623,Chinese Restaurant,Chinese Restaurants,Chinese,4bf58dd8d48988d145941735
22,Dumpling Kitchen,4b78acfdf964a52063dd2ee3,37.74249006365133,-122.48705915184706,Dumpling Restaurant,Dumpling Restaurants,Dumplings,4bf58dd8d48988d108941735
23,Eggxotic,5adced10829b0c3e3ba14268,37.72786806401975,-122.47671050075766,Dessert Shop,Dessert Shops,Desserts,4bf58dd8d48988d1d0941735
24,House of Coffee,4ac90c72f964a5204bbe20e3,37.75389654518352,-122.48000750178221,Coffee Shop,Coffee Shops,Coffee Shop,4bf58dd8d48988d1e0931735
25,Rice Garden,4a90c961f964a520751920e3,37.73322125886823,-122.48990367235506,Chinese Restaurant,Chinese Restaurants,Chinese,4bf58dd8d48988d145941735
26,Kukje Deli & Sushi,557c9b63498efc1a4b9ab589,37.69454348561457,-122.47140103972231,Deli / Bodega,Delis / Bodegas,Deli / Bodega,4bf58dd8d48988d146941735
27,Andytown,58c5fda9c30f791c62a37beb,37.74167718755977,-122.50519325872216,Coffee Shop,Coffee Shops,Coffee Shop,4bf58dd8d48988d1e0931735
28,McDonald's,4a60277ff964a520b9c01fe3,37.723494,-122.455453,Fast Food Restaurant,Fast Food Restaurants,Fast Food,4bf58dd8d48988d16e941735
29,Phở Huỹnh Hiệp 3 - Kevin's Noodle House,4a7ddc63f964a520f1ef1fe3,37.698173548515314,-122.4815606515754,Vietnamese Restaurant,Vietnamese Restaurants,Vietnamese,4bf58dd8d48988d14a941735
30,Panda Express,47f191bdf964a5208d4e1fe3,37.72785431561873,-122.47691789721206,Chinese Restaurant,Chinese Restaurants,Chinese,4bf58dd8d48988d145941735
31,Boulevard Cafe,49e9de32f964a52006661fe3,37.70395577861726,-122.4753953408699,Diner,Diners,Diner,4bf58dd8d48988d147941735
32,Yi Fang Taiwan Fruit Tea,5c15df1c838e59002cb89455,37.728126,-122.477218,Bubble Tea Shop,Bubble Tea Shops,Bubble Tea,52e81612bcbc57f1066b7a0c
33,Stonestown Farmers Market,4ac8eec6f964a52062bd20e3,37.730126917341096,-122.47915000470392,Farmers Market,Farmers Markets,Farmer's Market,4bf58dd8d48988d1fa941735
34,Banana Island,43c50166f964a5205f2d1fe3,37.69979519435566,-122.48341784352344,Malay Restaurant,Malay Restaurants,Malay,4bf58dd8d48988d156941735
35,La Corneta,45052b29f964a520e5381fe3,37.733913724338414,-122.43406148207286,Mexican Restaurant,Mexican Restaurants,Mexican,4bf58dd8d48988d1c1941735
36,Home,54dfed34498edb2219438f71,37.7543481049095,-122.47697284054232,Coffee Shop,Coffee Shops,Coffee Shop,4bf58dd8d48988d1e0931735
37,Starbucks,4a45130cf964a520bca71fe3,37.72795856,-122.4768031,Coffee Shop,Coffee Shops,Coffee Shop,4bf58dd8d48988d1e0931735
38,Peet's Coffee & Tea,5070aafd498e62f9b503da5e,37.733589,-122.489709,Coffee Shop,Coffee Shops,Coffee Shop,4bf58dd8d48988d1e0931735
39,McDonald's,4b0f6683f964a520066223e3,37.69203,-122.471282,Fast Food Restaurant,Fast Food Restaurants,Fast Food,4bf58dd8d48988d16e941735
40,Gene's Liquor & Deli,4b8f494ff964a520715033e3,37.742384443021436,-122.489760185854,Liquor Store,Liquor Stores,Liquor Store,4bf58dd8d48988d186941735
41,Espresso Bar,573b2c2f38faeff59fd2c102,37.72655898181562,-122.47753322124481,Café,Cafés,Café,4bf58dd8d48988d16d941735
42,Peet's Coffee & Tea,4a65e91bf964a520b2c71fe3,37.740337,-122.466617,Coffee Shop,Coffee Shops,Coffee Shop,4bf58dd8d48988d1e0931735
43,Leaping Lemur Café,4b65edd2f964a520f9082be3,37.733188267410355,-122.50323951244354,Café,Cafés,Café,4bf58dd8d48988d16d941735
44,Chipotle Mexican Grill,4a95bfc4f964a520782420e3,37.70144292177419,-122.48255535575463,Mexican Restaurant,Mexican Restaurants,Mexican,4bf58dd8d48988d1c1941735
45,Natural Sensations,4ad4e412f964a52079fc20e3,37.72202083586753,-122.4786118142431,Juice Bar,Juice Bars,Juice Bar,4bf58dd8d48988d112941735
46,Krispy Kreme Doughnuts,49f3ecb0f964a520eb6a1fe3,37.688771,-122.471606,Donut Shop,Donut Shops,Donuts,4bf58dd8d48988d148941735
47,Starbucks,4d14d53085fc6dcb9b459b4e,37.697357,-122.46297,Coffee Shop,Coffee Shops,Coffee Shop,4bf58dd8d48988d1e0931735
48,Golden Island Cafe,4a7501d4f964a52042e01fe3,37.7543180370544,-122.47772634029388,Dessert Shop,Dessert Shops,Desserts,4bf58dd8d48988d1d0941735
49,One Waan Thai Restaurant,5823c2cdffb2193e58703e34,37.733184366884934,-122.43438600009608,Restaurant,Restaurants,Restaurant,4bf58dd8d48988d1c4941735
50,Cafe Rosso,4aa0126af964a5202b3e20e3,37.722881250301704,-122.48044244333092,Café,Cafés,Café,4bf58dd8d48988d16d941735
51,Sheng Kee Bakery,4b788040f964a52084d22ee3,37.69899594115916,-122.48220150046158,Bakery,Bakeries,Bakery,4bf58dd8d48988d16a941735
52,Tiki Haven,4d844c6bf1e56ea8f8a9728a,37.75428962812687,-122.47815665849926,Tiki Bar,Tiki Bars,Tiki Bar,56aa371be4b08b9a8d57354d
53,White Cap,5a06582e0802d42aa2b760b6,37.74185587001411,-122.5048392552865,Cocktail Bar,Cocktail Bars,Cocktail,4bf58dd8d48988d11e941735
54,Sunset Reservoir Brewing Company,53e281f0498ec42c8bc221b1,37.753874496325835,-122.48237977993593,Brewery,Breweries,Brewery,50327c8591d4c4b30a586d5d
55,Kim's Palace,4dbcb83c4b222080d39a027b,37.685178,-122.480398,Other Nightlife,Other Nightlife,Nightlife,4bf58dd8d48988d11a941735
56,Philosopher's Club,49f35a25f964a520916a1fe3,37.740894965026094,-122.46553217465589,Bar,Bars,Bar,4bf58dd8d48988d116941735
57,Underdogs Too,5c170ddd5f68b9002c632e5c,37.741892,-122.504763,Taco Place,Taco Places,Tacos,4bf58dd8d48988d151941735
58,Glen Park Station,563ef865cd10b88df828028e,37.734188619314516,-122.43417077944143,Dive Bar,Dive Bars,Dive Bar,4bf58dd8d48988d118941735
59,Riptide,4d3c6a863ec9a35dfd644881,37.74168550676124,-122.50532321284336,Dive Bar,Dive Bars,Dive Bar,4bf58dd8d48988d118941735
60,Parkside Tavern,4a86114cf964a520480020e3,37.74267218305755,-122.48716050410408,Gastropub,Gastropubs,Gastropub,4bf58dd8d48988d155941735
61,Recovery Room,5adc0e021acf113ad0f6a9fa,37.725465862309946,-122.4343419070651,Bar,Bars,Bar,4bf58dd8d48988d116941735
62,After Hours,59d2e347237dee5208cbee53,37.742176320139876,-122.49894691565898,Bar,Bars,Bar,4bf58dd8d48988d116941735
63,Val's Restaurant and Lounge,4b552a7cf964a5206cdd27e3,37.69173055507953,-122.47129341624898,Steakhouse,Steakhouses,Steakhouse,4bf58dd8d48988d1cc941735
64,Voiz Karaoke,4b9352f6f964a520164034e3,37.74323505498939,-122.47107766653484,Karaoke Bar,Karaoke Bars,Karaoke,4bf58dd8d48988d120941735
65,The Dubliner,4a69315df964a520c2cb1fe3,37.737683802880035,-122.46956056412179,Pub,Pubs,Pub,4bf58dd8d48988d11b941735
66,Tselogs,56419548498ea7da4bc2641b,37.70686423060626,-122.45885464229286,Lounge,Lounges,Lounge,4bf58dd8d48988d121941735
67,Parkside Hookah,4c9316872bf7b60c8854680a,37.741585877747525,-122.47570317460121,Hookah Bar,Hookah Bars,Hookah Bar,4bf58dd8d48988d119941735
68,Vin Debut,5674ee88498e64d8f28af57d,37.74076964714903,-122.46580562928152,Wine Bar,Wine Bars,Wine Bar,4bf58dd8d48988d123941735
69,Fire Fly Sports Bar,4b724069f964a5209b752de3,37.75353906930099,-122.49028328559612,Bar,Bars,Bar,4bf58dd8d48988d116941735
70,Bottoms Up Bar & Lounge,4b03984ff964a520db4f22e3,37.723009877300576,-122.43621031743807,Bar,Bars,Bar,4bf58dd8d48988d116941735
71,Annex,4b79df46f964a52072172fe3,37.70596406555044,-122.46148076212567,Dive Bar,Dive Bars,Dive Bar,4bf58dd8d48988d118941735
72,The Ave Bar,4cb9db8c43ec6dcbb724a031,37.72454281455243,-122.45935827448322,Bar,Bars,Bar,4bf58dd8d48988d116941735
73,Ralston,4ea7a8efb8034ce4bced631f,37.72078770761517,-122.46923884720123,Speakeasy,Speakeasies,Speakeasy,4bf58dd8d48988d1d4941735
74,Last Stop,58d5bda42a19825836bb98bd,37.70671203483266,-122.45885215764186,Sports Bar,Sports Bars,Sports Bar,4bf58dd8d48988d11d941735
75,Fog City Hookah Bar & Grill,54b0e67b498e594f4ba5f6be,37.69005064289412,-122.46551293752027,Hookah Bar,Hookah Bars,Hookah Bar,4bf58dd8d48988d119941735
76,Miraloma Club,429f9d80f964a520c6241fe3,37.743906019837034,-122.45366175740402,Dive Bar,Dive Bars,Dive Bar,4bf58dd8d48988d118941735
77,Mike's Liquors,4a0e082af964a520bb751fe3,37.717047624051986,-122.44069948494237,Liquor Store,Liquor Stores,Liquor Store,4bf58dd8d48988d186941735
78,Friends Bar,4ae7ed0cf964a520dfad21e3,37.73168186307918,-122.44791211353864,Bar,Bars,Bar,4bf58dd8d48988d116941735
79,McCarthy's Irish Bar,510c7fa6e4b0ca91e900783d,37.74040241728515,-122.4665463457005,Pub,Pubs,Pub,4bf58dd8d48988d11b941735
80,The Lister Bar,54cca8ba498ea0f008da6b4b,37.71760715080541,-122.47383121921574,Nightclub,Nightclubs,Nightclub,4bf58dd8d48988d11f941735
81,The Dark Horse Inn,4ec020bbb8f7963bcdde0f6b,37.716127089376435,-122.44037320223659,Bar,Bars,Bar,4bf58dd8d48988d116941735
82,Rocks Den,565a5593498e67464ff1fb2d,37.7272603284223,-122.43283844792182,Sports Bar,Sports Bars,Sports Bar,4bf58dd8d48988d11d941735
83,Shannon Arms,4a60bfa1f964a52022c11fe3,37.743010129627564,-122.47596155308086,Pub,Pubs,Pub,4bf58dd8d48988d11b941735
84,OneUp Bar,546ffaaf498e44efc06cff7a,37.754357021306866,-122.47708023538158,Bar,Bars,Bar,4bf58dd8d48988d116941735
85,Costello's Four Deuces,4ada6b37f964a5206d2221e3,37.7422266969686,-122.49113081328775,Bar,Bars,Bar,4bf58dd8d48988d116941735
86,The Four Deuces,5251bac6498e62cb962b6c61,37.74223101224503,-122.49110628014726,Bar,Bars,Bar,4bf58dd8d48988d116941735
87,Witch Doctor's Lounge,5a0fc712286fda3f036346b0,37.720676,-122.43802,Bar,Bars,Bar,4bf58dd8d48988d116941735
88,Boomerang Cocktail Lounge,4bbacdec98c7ef3b83863302,37.754191576284065,-122.47914397727983,Cocktail Bar,Cocktail Bars,Cocktail,4bf58dd8d48988d11e941735
89,Geneva Pub,4b6f91abf964a52037f62ce3,37.714242636406595,-122.43641500549084,Bar,Bars,Bar,4bf58dd8d48988d116941735
90,Sippin  Wine Bar,5594a168498ec339e9ee3a4e,37.72301655381866,-122.43628491699751,Lounge,Lounges,Lounge,4bf58dd8d48988d121941735
91,Que Syrah,4bf6c1645efe2d7fdab16734,37.73859938571756,-122.46852822019164,Wine Bar,Wine Bars,Wine Bar,4bf58dd8d48988d123941735
92,The Connection,4c12be52a9c220a1aa91549d,37.70974081507923,-122.4501494702126,Dive Bar,Dive Bars,Dive Bar,4bf58dd8d48988d118941735
93,United Irish Cultural Center,4a6cba4bf964a5206fd11fe3,37.73585877924533,-122.50303636090925,Event Space,Event Spaces,Event Space,4bf58dd8d48988d171941735
94,Grandma's Saloon,4b08ee17f964a520681323e3,37.74304400999787,-122.47704646359036,Dive Bar,Dive Bars,Dive Bar,4bf58dd8d48988d118941735
95,Lounge 2,4d8ef5f9cb9b224b70b89041,37.75331963382334,-122.47599932038837,Lounge,Lounges,Lounge,4bf58dd8d48988d121941735
96,78 Miramar Place,4d923218270e6ea8b33f64ff,37.719783,-122.457955,Beer Garden,Beer Gardens,Beer Garden,4bf58dd8d48988d117941735
97,Tiki Haven,4d844c6bf1e56ea8f8a9728a,37.75428962812687,-122.47815665849926,Tiki Bar,Tiki Bars,Tiki Bar,56aa371be4b08b9a8d57354d
98,White Cap,5a06582e0802d42aa2b760b6,37.74185587001411,-122.5048392552865,Cocktail Bar,Cocktail Bars,Cocktail,4bf58dd8d48988d11e941735
99,Philosopher's Club,49f35a25f964a520916a1fe3,37.740894965026094,-122.46553217465589,Bar,Bars,Bar,4bf58dd8d48988d116941735
100,Underdogs Too,5c170ddd5f68b9002c632e5c,37.741892,-122.504763,Taco Place,Taco Places,Tacos,4bf58dd8d48988d151941735
101,Glen Park Station,563ef865cd10b88df828028e,37.734188619314516,-122.43417077944143,Dive Bar,Dive Bars,Dive Bar,4bf58dd8d48988d118941735
102,Riptide,4d3c6a863ec9a35dfd644881,37.74168550676124,-122.50532321284336,Dive Bar,Dive Bars,Dive Bar,4bf58dd8d48988d118941735
103,Parkside Tavern,4a86114cf964a520480020e3,37.74267218305755,-122.48716050410408,Gastropub,Gastropubs,Gastropub,4bf58dd8d48988d155941735
104,Recovery Room,5adc0e021acf113ad0f6a9fa,37.725465862309946,-122.4343419070651,Bar,Bars,Bar,4bf58dd8d48988d116941735
105,After Hours,59d2e347237dee5208cbee53,37.742176320139876,-122.49894691565898,Bar,Bars,Bar,4bf58dd8d48988d116941735
106,Val's Restaurant and Lounge,4b552a7cf964a5206cdd27e3,37.69173055507953,-122.47129341624898,Steakhouse,Steakhouses,Steakhouse,4bf58dd8d48988d1cc941735
107,Voiz Karaoke,4b9352f6f964a520164034e3,37.74323505498939,-122.47107766653484,Karaoke Bar,Karaoke Bars,Karaoke,4bf58dd8d48988d120941735
108,The Dubliner,4a69315df964a520c2cb1fe3,37.737683802880035,-122.46956056412179,Pub,Pubs,Pub,4bf58dd8d48988d11b941735
109,Parkside Hookah,4c9316872bf7b60c8854680a,37.741585877747525,-122.47570317460121,Hookah Bar,Hookah Bars,Hookah Bar,4bf58dd8d48988d119941735
110,Vin Debut,5674ee88498e64d8f28af57d,37.74076964714903,-122.46580562928152,Wine Bar,Wine Bars,Wine Bar,4bf58dd8d48988d123941735
111,Fire Fly Sports Bar,4b724069f964a5209b752de3,37.75353906930099,-122.49028328559612,Bar,Bars,Bar,4bf58dd8d48988d116941735
112,Bottoms Up Bar & Lounge,4b03984ff964a520db4f22e3,37.723009877300576,-122.43621031743807,Bar,Bars,Bar,4bf58dd8d48988d116941735
113,Annex,4b79df46f964a52072172fe3,37.70596406555044,-122.46148076212567,Dive Bar,Dive Bars,Dive Bar,4bf58dd8d48988d118941735
114,The Ave Bar,4cb9db8c43ec6dcbb724a031,37.72454281455243,-122.45935827448322,Bar,Bars,Bar,4bf58dd8d48988d116941735
115,Ralston,4ea7a8efb8034ce4bced631f,37.72078770761517,-122.46923884720123,Speakeasy,Speakeasies,Speakeasy,4bf58dd8d48988d1d4941735
116,Last Stop,58d5bda42a19825836bb98bd,37.70671203483266,-122.45885215764186,Sports Bar,Sports Bars,Sports Bar,4bf58dd8d48988d11d941735
117,Fog City Hookah Bar & Grill,54b0e67b498e594f4ba5f6be,37.69005064289412,-122.46551293752027,Hookah Bar,Hookah Bars,Hookah Bar,4bf58dd8d48988d119941735
118,Miraloma Club,429f9d80f964a520c6241fe3,37.743906019837034,-122.45366175740402,Dive Bar,Dive Bars,Dive Bar,4bf58dd8d48988d118941735
119,Mike's Liquors,4a0e082af964a520bb751fe3,37.717047624051986,-122.44069948494237,Liquor Store,Liquor Stores,Liquor Store,4bf58dd8d48988d186941735
120,Friends Bar,4ae7ed0cf964a520dfad21e3,37.73168186307918,-122.44791211353864,Bar,Bars,Bar,4bf58dd8d48988d116941735
121,McCarthy's Irish Bar,510c7fa6e4b0ca91e900783d,37.74040241728515,-122.4665463457005,Pub,Pubs,Pub,4bf58dd8d48988d11b941735
122,The Dark Horse Inn,4ec020bbb8f7963bcdde0f6b,37.716127089376435,-122.44037320223659,Bar,Bars,Bar,4bf58dd8d48988d116941735
123,Rocks Den,565a5593498e67464ff1fb2d,37.7272603284223,-122.43283844792182,Sports Bar,Sports Bars,Sports Bar,4bf58dd8d48988d11d941735
124,Shannon Arms,4a60bfa1f964a52022c11fe3,37.743010129627564,-122.47596155308086,Pub,Pubs,Pub,4bf58dd8d48988d11b941735
125,OneUp Bar,546ffaaf498e44efc06cff7a,37.754357021306866,-122.47708023538158,Bar,Bars,Bar,4bf58dd8d48988d116941735
126,Costello's Four Deuces,4ada6b37f964a5206d2221e3,37.7422266969686,-122.49113081328775,Bar,Bars,Bar,4bf58dd8d48988d116941735
127,The Four Deuces,5251bac6498e62cb962b6c61,37.74223101224503,-122.49110628014726,Bar,Bars,Bar,4bf58dd8d48988d116941735
128,Witch Doctor's Lounge,5a0fc712286fda3f036346b0,37.720676,-122.43802,Bar,Bars,Bar,4bf58dd8d48988d116941735
129,Boomerang Cocktail Lounge,4bbacdec98c7ef3b83863302,37.754191576284065,-122.47914397727983,Cocktail Bar,Cocktail Bars,Cocktail,4bf58dd8d48988d11e941735
130,Geneva Pub,4b6f91abf964a52037f62ce3,37.714242636406595,-122.43641500549084,Bar,Bars,Bar,4bf58dd8d48988d116941735
131,Que Syrah,4bf6c1645efe2d7fdab16734,37.73859938571756,-122.46852822019164,Wine Bar,Wine Bars,Wine Bar,4bf58dd8d48988d123941735
132,The Connection,4c12be52a9c220a1aa91549d,37.70974081507923,-122.4501494702126,Dive Bar,Dive Bars,Dive Bar,4bf58dd8d48988d118941735
133,United Irish Cultural Center,4a6cba4bf964a5206fd11fe3,37.73585877924533,-122.50303636090925,Event Space,Event Spaces,Event Space,4bf58dd8d48988d171941735
134,Grandma's Saloon,4b08ee17f964a520681323e3,37.74304400999787,-122.47704646359036,Dive Bar,Dive Bars,Dive Bar,4bf58dd8d48988d118941735
135,78 Miramar Place,4d923218270e6ea8b33f64ff,37.719783,-122.457955,Beer Garden,Beer Gardens,Beer Garden,4bf58dd8d48988d117941735
136,85C Bakery Cafe - Stonestown,5b942774deb4950025220c76,37.72791847111096,-122.47628171618449,Bakery,Bakeries,Bakery,4bf58dd8d48988d16a941735
137,Boudin Bakery Café Stonestown,4aecaa99f964a52019ca21e3,37.728669,-122.476886,Bakery,Bakeries,Bakery,4bf58dd8d48988d16a941735
138,Krispy Kreme Doughnuts,49f3ecb0f964a520eb6a1fe3,37.688771,-122.471606,Donut Shop,Donut Shops,Donuts,4bf58dd8d48988d148941735
139,Sheng Kee Bakery,4b788040f964a52084d22ee3,37.69899594115916,-122.48220150046158,Bakery,Bakeries,Bakery,4bf58dd8d48988d16a941735
140,La Baguette,529d49c111d27cfebb6c8740,37.72716748968099,-122.47723824286889,Bakery,Bakeries,Bakery,4bf58dd8d48988d16a941735
141,Cocola Bakery,4b3fd429f964a520e3af25e3,37.72784218971036,-122.4767595204661,Bakery,Bakeries,Bakery,4bf58dd8d48988d16a941735
142,Noe Valley Bakery,5817b85138fa18081795a194,37.74056451440146,-122.46628414888933,Bakery,Bakeries,Bakery,4bf58dd8d48988d16a941735
143,Cafe Bakery & Restaurant,4ab81a99f964a520357c20e3,37.75417144724461,-122.4781683793777,Bakery,Bakeries,Bakery,4bf58dd8d48988d16a941735
144,Le Bread Express,57ba448b498e2dc8c6d2c251,37.728757,-122.477223,Bakery,Bakeries,Bakery,4bf58dd8d48988d16a941735
145,Mr. Bread,56a52b02498e66937df2494d,37.74303448217439,-122.47717087703009,Bakery,Bakeries,Bakery,4bf58dd8d48988d16a941735
146,Goldilocks,574cabe6498eaa071d281d6b,37.706713264409444,-122.45987176392525,Bakery,Bakeries,Bakery,4bf58dd8d48988d16a941735
147,Ambrosia Bakery,4b42ca2ff964a520e9d925e3,37.73168360422749,-122.4734619126952,Bakery,Bakeries,Bakery,4bf58dd8d48988d16a941735
148,Red Ribbon Bakeshop,457da3f2f964a5202d3f1fe3,37.697229787882,-122.46293190496694,Bakery,Bakeries,Bakery,4bf58dd8d48988d16a941735
149,Hilda's Mart and Bake Shop,4a58c8b8f964a520dbb71fe3,37.72251097057312,-122.43454860403548,Bakery,Bakeries,Bakery,4bf58dd8d48988d16a941735
150,T28 Bakery and Cafe,4af9013ff964a520cf1022e3,37.74255955704313,-122.48528384519466,Chinese Restaurant,Chinese Restaurants,Chinese,4bf58dd8d48988d145941735
151,Good Orchard Bakery,4f08d48be4b0803b69422aed,37.72339609803051,-122.43574523596273,Bakery,Bakeries,Bakery,4bf58dd8d48988d16a941735
152,Boss Bakery,5c02e7935ba046002c49e6fb,37.753704,-122.49087,Bakery,Bakeries,Bakery,4bf58dd8d48988d16a941735
153,Nothing Bundt Cakes,5790028ecd10259c409605b7,37.699752375389245,-122.48377150302076,Bakery,Bakeries,Bakery,4bf58dd8d48988d16a941735
154,Cafe Bakery,4e32f7af18a8efdb1753a5c0,37.75409663054946,-122.47834299637326,Bakery,Bakeries,Bakery,4bf58dd8d48988d16a941735
155,Rolling Out,4eea6f00f9ab8fc95f202984,37.742775160440196,-122.48475305140774,Café,Cafés,Café,4bf58dd8d48988d16d941735
156,A-1 Bakery,4bbf523e98f49521956bd263,37.72480202387042,-122.46064141432204,Bakery,Bakeries,Bakery,4bf58dd8d48988d16a941735
157,tömbeki,56c6ef7ecd107c4ed69012e2,37.68387,37.735969,Café,Cafés,Café,4bf58dd8d48988d16d941735
158,tömbeki,56c6ef7ecd107c4ed69012e2,37.68387,37.735969,Café,Cafés,Café,4bf58dd8d48988d16d941735
159,Marugame Udon,5a3b267d4940bc2abc94d088,37.72753502992446,-122.47614774426498,Udon Restaurant,Udon Restaurants,Udon,55a59bace4b013909087cb2a
160,In-N-Out Burger,457c6a6df964a520093f1fe3,37.68826935148615,-122.47197300195694,Burger Joint,Burger Joints,Burgers,4bf58dd8d48988d16c941735
161,Shihlin Taiwan Street Snacks 士林臺灣小吃,5b09e2e398fbfc002c028929,37.727817534627626,-122.47646649433597,Taiwanese Restaurant,Taiwanese Restaurants,Taiwanese,52af3b813cf9994f4e043c04
162,Blaze Pizza,55145ef3498e4d9691a639d5,37.727931,-122.476536,Pizza Place,Pizza Places,Pizza,4bf58dd8d48988d1ca941735
163,85C Bakery Cafe - Stonestown,5b942774deb4950025220c76,37.72791847111096,-122.47628171618449,Bakery,Bakeries,Bakery,4bf58dd8d48988d16a941735
164,McDonald's,4a8972e5f964a5200b0820e3,37.7264084,-122.4763127,Fast Food Restaurant,Fast Food Restaurants,Fast Food,4bf58dd8d48988d16e941735
165,Starbucks,4310fe80f964a52051271fe3,37.74474068,-122.4526744,Coffee Shop,Coffee Shops,Coffee Shop,4bf58dd8d48988d1e0931735
166,Starbucks,4abfc3d1f964a5200f9220e3,37.699575,-122.481762,Coffee Shop,Coffee Shops,Coffee Shop,4bf58dd8d48988d1e0931735
167,Marketplace Cafe,573b2c2e38faeff59fd2bb9a,37.726605654060464,-122.47750103473663,Café,Cafés,Café,4bf58dd8d48988d16d941735
168,Stonestown Galleria Food Court,4b7715bff964a520d27b2ee3,37.72803126482387,-122.47708797454834,Food Court,Food Courts,Food Court,4bf58dd8d48988d120951735
169,Peet's Coffee & Tea,5227b1b08bfdf21a788fc5a0,37.727715,-122.476555,Coffee Shop,Coffee Shops,Coffee Shop,4bf58dd8d48988d1e0931735
170,Philz Coffee,56eeb771498e0692c105a6f7,37.723478884185766,-122.45374876198406,Coffee Shop,Coffee Shops,Coffee Shop,4bf58dd8d48988d1e0931735
171,Original Joe's Westlake,56a2acbd498ee1a54d04a90b,37.70155964783083,-122.48549401760101,Italian Restaurant,Italian Restaurants,Italian,4bf58dd8d48988d110941735
172,Starbucks,49e262daf964a52012621fe3,37.73966759184441,-122.46727108843436,Coffee Shop,Coffee Shops,Coffee Shop,4bf58dd8d48988d1e0931735
173,Boudin Bakery Café Stonestown,4aecaa99f964a52019ca21e3,37.728669,-122.476886,Bakery,Bakeries,Bakery,4bf58dd8d48988d16a941735
174,Olive Garden,46d715faf964a5206c4a1fe3,37.72743193152167,-122.47621065614784,Italian Restaurant,Italian Restaurants,Italian,4bf58dd8d48988d110941735
175,Jollibee,4b14f8a6f964a5209ca723e3,37.69727551178855,-122.46374254371321,Fast Food Restaurant,Fast Food Restaurants,Fast Food,4bf58dd8d48988d16e941735
176,See's Candies,4b5ba39ff964a520db0c29e3,37.72787026212226,-122.47695621960317,Candy Store,Candy Stores,Candy Store,4bf58dd8d48988d117951735
177,"Andytown Roastery, Training Lab & Coffee Supply",58b76a25fc5a5f1dcd7b248d,37.742142085707165,-122.49856601193528,Coffee Shop,Coffee Shops,Coffee Shop,4bf58dd8d48988d1e0931735
178,Panda Express,51feb67c498ee2b1cc4f9071,37.69899267171932,-122.48228128326623,Chinese Restaurant,Chinese Restaurants,Chinese,4bf58dd8d48988d145941735
179,Dumpling Kitchen,4b78acfdf964a52063dd2ee3,37.74249006365133,-122.48705915184706,Dumpling Restaurant,Dumpling Restaurants,Dumplings,4bf58dd8d48988d108941735
180,Eggxotic,5adced10829b0c3e3ba14268,37.72786806401975,-122.47671050075766,Dessert Shop,Dessert Shops,Desserts,4bf58dd8d48988d1d0941735
181,House of Coffee,4ac90c72f964a5204bbe20e3,37.75389654518352,-122.48000750178221,Coffee Shop,Coffee Shops,Coffee Shop,4bf58dd8d48988d1e0931735
182,Rice Garden,4a90c961f964a520751920e3,37.73322125886823,-122.48990367235506,Chinese Restaurant,Chinese Restaurants,Chinese,4bf58dd8d48988d145941735
183,Kukje Deli & Sushi,557c9b63498efc1a4b9ab589,37.69454348561457,-122.47140103972231,Deli / Bodega,Delis / Bodegas,Deli / Bodega,4bf58dd8d48988d146941735
184,Andytown,58c5fda9c30f791c62a37beb,37.74167718755977,-122.50519325872216,Coffee Shop,Coffee Shops,Coffee Shop,4bf58dd8d48988d1e0931735
185,McDonald's,4a60277ff964a520b9c01fe3,37.723494,-122.455453,Fast Food Restaurant,Fast Food Restaurants,Fast Food,4bf58dd8d48988d16e941735
186,Phở Huỹnh Hiệp 3 - Kevin's Noodle House,4a7ddc63f964a520f1ef1fe3,37.698173548515314,-122.4815606515754,Vietnamese Restaurant,Vietnamese Restaurants,Vietnamese,4bf58dd8d48988d14a941735
187,Panda Express,47f191bdf964a5208d4e1fe3,37.72785431561873,-122.47691789721206,Chinese Restaurant,Chinese Restaurants,Chinese,4bf58dd8d48988d145941735
188,Boulevard Cafe,49e9de32f964a52006661fe3,37.70395577861726,-122.4753953408699,Diner,Diners,Diner,4bf58dd8d48988d147941735
189,Yi Fang Taiwan Fruit Tea,5c15df1c838e59002cb89455,37.728126,-122.477218,Bubble Tea Shop,Bubble Tea Shops,Bubble Tea,52e81612bcbc57f1066b7a0c
190,Stonestown Farmers Market,4ac8eec6f964a52062bd20e3,37.730126917341096,-122.47915000470392,Farmers Market,Farmers Markets,Farmer's Market,4bf58dd8d48988d1fa941735
191,Banana Island,43c50166f964a5205f2d1fe3,37.69979519435566,-122.48341784352344,Malay Restaurant,Malay Restaurants,Malay,4bf58dd8d48988d156941735
192,La Corneta,45052b29f964a520e5381fe3,37.733913724338414,-122.43406148207286,Mexican Restaurant,Mexican Restaurants,Mexican,4bf58dd8d48988d1c1941735
193,Home,54dfed34498edb2219438f71,37.7543481049095,-122.47697284054232,Coffee Shop,Coffee Shops,Coffee Shop,4bf58dd8d48988d1e0931735
194,Starbucks,4a45130cf964a520bca71fe3,37.72795856,-122.4768031,Coffee Shop,Coffee Shops,Coffee Shop,4bf58dd8d48988d1e0931735
195,Peet's Coffee & Tea,5070aafd498e62f9b503da5e,37.733589,-122.489709,Coffee Shop,Coffee Shops,Coffee Shop,4bf58dd8d48988d1e0931735
196,McDonald's,4b0f6683f964a520066223e3,37.69203,-122.471282,Fast Food Restaurant,Fast Food Restaurants,Fast Food,4bf58dd8d48988d16e941735
197,Gene's Liquor & Deli,4b8f494ff964a520715033e3,37.742384443021436,-122.489760185854,Liquor Store,Liquor Stores,Liquor Store,4bf58dd8d48988d186941735
198,Espresso Bar,573b2c2f38faeff59fd2c102,37.72655898181562,-122.47753322124481,Café,Cafés,Café,4bf58dd8d48988d16d941735
199,Peet's Coffee & Tea,4a65e91bf964a520b2c71fe3,37.740337,-122.466617,Coffee Shop,Coffee Shops,Coffee Shop,4bf58dd8d48988d1e0931735
200,Leaping Lemur Café,4b65edd2f964a520f9082be3,37.733188267410355,-122.50323951244354,Café,Cafés,Café,4bf58dd8d48988d16d941735
201,Chipotle Mexican Grill,4a95bfc4f964a520782420e3,37.70144292177419,-122.48255535575463,Mexican Restaurant,Mexican Restaurants,Mexican,4bf58dd8d48988d1c1941735
202,Natural Sensations,4ad4e412f964a52079fc20e3,37.72202083586753,-122.4786118142431,Juice Bar,Juice Bars,Juice Bar,4bf58dd8d48988d112941735
203,Krispy Kreme Doughnuts,49f3ecb0f964a520eb6a1fe3,37.688771,-122.471606,Donut Shop,Donut Shops,Donuts,4bf58dd8d48988d148941735
204,Starbucks,4d14d53085fc6dcb9b459b4e,37.697357,-122.46297,Coffee Shop,Coffee Shops,Coffee Shop,4bf58dd8d48988d1e0931735
205,Golden Island Cafe,4a7501d4f964a52042e01fe3,37.7543180370544,-122.47772634029388,Dessert Shop,Dessert Shops,Desserts,4bf58dd8d48988d1d0941735
206,One Waan Thai Restaurant,5823c2cdffb2193e58703e34,37.733184366884934,-122.43438600009608,Restaurant,Restaurants,Restaurant,4bf58dd8d48988d1c4941735
207,Cafe Rosso,4aa0126af964a5202b3e20e3,37.722881250301704,-122.48044244333092,Café,Cafés,Café,4bf58dd8d48988d16d941735
208,Sheng Kee Bakery,4b788040f964a52084d22ee3,37.69899594115916,-122.48220150046158,Bakery,Bakeries,Bakery,4bf58dd8d48988d16a941735
209,Tiki Haven,4d844c6bf1e56ea8f8a9728a,37.75428962812687,-122.47815665849926,Tiki Bar,Tiki Bars,Tiki Bar,56aa371be4b08b9a8d57354d
210,White Cap,5a06582e0802d42aa2b760b6,37.74185587001411,-122.5048392552865,Cocktail Bar,Cocktail Bars,Cocktail,4bf58dd8d48988d11e941735
211,Sunset Reservoir Brewing Company,53e281f0498ec42c8bc221b1,37.753874496325835,-122.48237977993593,Brewery,Breweries,Brewery,50327c8591d4c4b30a586d5d
212,Kim's Palace,4dbcb83c4b222080d39a027b,37.685178,-122.480398,Other Nightlife,Other Nightlife,Nightlife,4bf58dd8d48988d11a941735
213,Philosopher's Club,49f35a25f964a520916a1fe3,37.740894965026094,-122.46553217465589,Bar,Bars,Bar,4bf58dd8d48988d116941735
214,Underdogs Too,5c170ddd5f68b9002c632e5c,37.741892,-122.504763,Taco Place,Taco Places,Tacos,4bf58dd8d48988d151941735
215,Glen Park Station,563ef865cd10b88df828028e,37.734188619314516,-122.43417077944143,Dive Bar,Dive Bars,Dive Bar,4bf58dd8d48988d118941735
216,Riptide,4d3c6a863ec9a35dfd644881,37.74168550676124,-122.50532321284336,Dive Bar,Dive Bars,Dive Bar,4bf58dd8d48988d118941735
217,Parkside Tavern,4a86114cf964a520480020e3,37.74267218305755,-122.48716050410408,Gastropub,Gastropubs,Gastropub,4bf58dd8d48988d155941735
218,Recovery Room,5adc0e021acf113ad0f6a9fa,37.725465862309946,-122.4343419070651,Bar,Bars,Bar,4bf58dd8d48988d116941735
219,After Hours,59d2e347237dee5208cbee53,37.742176320139876,-122.49894691565898,Bar,Bars,Bar,4bf58dd8d48988d116941735
220,Val's Restaurant and Lounge,4b552a7cf964a5206cdd27e3,37.69173055507953,-122.47129341624898,Steakhouse,Steakhouses,Steakhouse,4bf58dd8d48988d1cc941735
221,Voiz Karaoke,4b9352f6f964a520164034e3,37.74323505498939,-122.47107766653484,Karaoke Bar,Karaoke Bars,Karaoke,4bf58dd8d48988d120941735
222,The Dubliner,4a69315df964a520c2cb1fe3,37.737683802880035,-122.46956056412179,Pub,Pubs,Pub,4bf58dd8d48988d11b941735
223,Tselogs,56419548498ea7da4bc2641b,37.70686423060626,-122.45885464229286,Lounge,Lounges,Lounge,4bf58dd8d48988d121941735
224,Parkside Hookah,4c9316872bf7b60c8854680a,37.741585877747525,-122.47570317460121,Hookah Bar,Hookah Bars,Hookah Bar,4bf58dd8d48988d119941735
225,Vin Debut,5674ee88498e64d8f28af57d,37.74076964714903,-122.46580562928152,Wine Bar,Wine Bars,Wine Bar,4bf58dd8d48988d123941735
226,Fire Fly Sports Bar,4b724069f964a5209b752de3,37.75353906930099,-122.49028328559612,Bar,Bars,Bar,4bf58dd8d48988d116941735
227,Bottoms Up Bar & Lounge,4b03984ff964a520db4f22e3,37.723009877300576,-122.43621031743807,Bar,Bars,Bar,4bf58dd8d48988d116941735
228,Annex,4b79df46f964a52072172fe3,37.70596406555044,-122.46148076212567,Dive Bar,Dive Bars,Dive Bar,4bf58dd8d48988d118941735
229,The Ave Bar,4cb9db8c43ec6dcbb724a031,37.72454281455243,-122.45935827448322,Bar,Bars,Bar,4bf58dd8d48988d116941735
230,Ralston,4ea7a8efb8034ce4bced631f,37.72078770761517,-122.46923884720123,Speakeasy,Speakeasies,Speakeasy,4bf58dd8d48988d1d4941735
231,Last Stop,58d5bda42a19825836bb98bd,37.70671203483266,-122.45885215764186,Sports Bar,Sports Bars,Sports Bar,4bf58dd8d48988d11d941735
232,Fog City Hookah Bar & Grill,54b0e67b498e594f4ba5f6be,37.69005064289412,-122.46551293752027,Hookah Bar,Hookah Bars,Hookah Bar,4bf58dd8d48988d119941735
233,Mike's Liquors,4a0e082af964a520bb751fe3,37.717047624051986,-122.44069948494237,Liquor Store,Liquor Stores,Liquor Store,4bf58dd8d48988d186941735
234,Miraloma Club,429f9d80f964a520c6241fe3,37.743906019837034,-122.45366175740402,Dive Bar,Dive Bars,Dive Bar,4bf58dd8d48988d118941735
235,Friends Bar,4ae7ed0cf964a520dfad21e3,37.73168186307918,-122.44791211353864,Bar,Bars,Bar,4bf58dd8d48988d116941735
236,McCarthy's Irish Bar,510c7fa6e4b0ca91e900783d,37.74040241728515,-122.4665463457005,Pub,Pubs,Pub,4bf58dd8d48988d11b941735
237,The Lister Bar,54cca8ba498ea0f008da6b4b,37.71760715080541,-122.47383121921574,Nightclub,Nightclubs,Nightclub,4bf58dd8d48988d11f941735
238,The Dark Horse Inn,4ec020bbb8f7963bcdde0f6b,37.716127089376435,-122.44037320223659,Bar,Bars,Bar,4bf58dd8d48988d116941735
239,Rocks Den,565a5593498e67464ff1fb2d,37.7272603284223,-122.43283844792182,Sports Bar,Sports Bars,Sports Bar,4bf58dd8d48988d11d941735
240,Shannon Arms,4a60bfa1f964a52022c11fe3,37.743010129627564,-122.47596155308086,Pub,Pubs,Pub,4bf58dd8d48988d11b941735
241,OneUp Bar,546ffaaf498e44efc06cff7a,37.754357021306866,-122.47708023538158,Bar,Bars,Bar,4bf58dd8d48988d116941735
242,Costello's Four Deuces,4ada6b37f964a5206d2221e3,37.7422266969686,-122.49113081328775,Bar,Bars,Bar,4bf58dd8d48988d116941735
243,The Four Deuces,5251bac6498e62cb962b6c61,37.74223101224503,-122.49110628014726,Bar,Bars,Bar,4bf58dd8d48988d116941735
244,Witch Doctor's Lounge,5a0fc712286fda3f036346b0,37.720676,-122.43802,Bar,Bars,Bar,4bf58dd8d48988d116941735
245,Boomerang Cocktail Lounge,4bbacdec98c7ef3b83863302,37.754191576284065,-122.47914397727983,Cocktail Bar,Cocktail Bars,Cocktail,4bf58dd8d48988d11e941735
246,Geneva Pub,4b6f91abf964a52037f62ce3,37.714242636406595,-122.43641500549084,Bar,Bars,Bar,4bf58dd8d48988d116941735
247,Sippin  Wine Bar,5594a168498ec339e9ee3a4e,37.72301655381866,-122.43628491699751,Lounge,Lounges,Lounge,4bf58dd8d48988d121941735
248,Que Syrah,4bf6c1645efe2d7fdab16734,37.73859938571756,-122.46852822019164,Wine Bar,Wine Bars,Wine Bar,4bf58dd8d48988d123941735
249,The Connection,4c12be52a9c220a1aa91549d,37.70974081507923,-122.4501494702126,Dive Bar,Dive Bars,Dive Bar,4bf58dd8d48988d118941735
250,United Irish Cultural Center,4a6cba4bf964a5206fd11fe3,37.73585877924533,-122.50303636090925,Event Space,Event Spaces,Event Space,4bf58dd8d48988d171941735
251,Grandma's Saloon,4b08ee17f964a520681323e3,37.74304400999787,-122.47704646359036,Dive Bar,Dive Bars,Dive Bar,4bf58dd8d48988d118941735
252,Lounge 2,4d8ef5f9cb9b224b70b89041,37.75331963382334,-122.47599932038837,Lounge,Lounges,Lounge,4bf58dd8d48988d121941735
253,78 Miramar Place,4d923218270e6ea8b33f64ff,37.719783,-122.457955,Beer Garden,Beer Gardens,Beer Garden,4bf58dd8d48988d117941735
254,Tiki Haven,4d844c6bf1e56ea8f8a9728a,37.75428962812687,-122.47815665849926,Tiki Bar,Tiki Bars,Tiki Bar,56aa371be4b08b9a8d57354d
255,White Cap,5a06582e0802d42aa2b760b6,37.74185587001411,-122.5048392552865,Cocktail Bar,Cocktail Bars,Cocktail,4bf58dd8d48988d11e941735
256,Philosopher's Club,49f35a25f964a520916a1fe3,37.740894965026094,-122.46553217465589,Bar,Bars,Bar,4bf58dd8d48988d116941735
257,Underdogs Too,5c170ddd5f68b9002c632e5c,37.741892,-122.504763,Taco Place,Taco Places,Tacos,4bf58dd8d48988d151941735
258,Glen Park Station,563ef865cd10b88df828028e,37.734188619314516,-122.43417077944143,Dive Bar,Dive Bars,Dive Bar,4bf58dd8d48988d118941735
259,Riptide,4d3c6a863ec9a35dfd644881,37.74168550676124,-122.50532321284336,Dive Bar,Dive Bars,Dive Bar,4bf58dd8d48988d118941735
260,Parkside Tavern,4a86114cf964a520480020e3,37.74267218305755,-122.48716050410408,Gastropub,Gastropubs,Gastropub,4bf58dd8d48988d155941735
261,Recovery Room,5adc0e021acf113ad0f6a9fa,37.725465862309946,-122.4343419070651,Bar,Bars,Bar,4bf58dd8d48988d116941735
262,After Hours,59d2e347237dee5208cbee53,37.742176320139876,-122.49894691565898,Bar,Bars,Bar,4bf58dd8d48988d116941735
263,Val's Restaurant and Lounge,4b552a7cf964a5206cdd27e3,37.69173055507953,-122.47129341624898,Steakhouse,Steakhouses,Steakhouse,4bf58dd8d48988d1cc941735
264,Voiz Karaoke,4b9352f6f964a520164034e3,37.74323505498939,-122.47107766653484,Karaoke Bar,Karaoke Bars,Karaoke,4bf58dd8d48988d120941735
265,The Dubliner,4a69315df964a520c2cb1fe3,37.737683802880035,-122.46956056412179,Pub,Pubs,Pub,4bf58dd8d48988d11b941735
266,Parkside Hookah,4c9316872bf7b60c8854680a,37.741585877747525,-122.47570317460121,Hookah Bar,Hookah Bars,Hookah Bar,4bf58dd8d48988d119941735
267,Vin Debut,5674ee88498e64d8f28af57d,37.74076964714903,-122.46580562928152,Wine Bar,Wine Bars,Wine Bar,4bf58dd8d48988d123941735
268,Fire Fly Sports Bar,4b724069f964a5209b752de3,37.75353906930099,-122.49028328559612,Bar,Bars,Bar,4bf58dd8d48988d116941735
269,Bottoms Up Bar & Lounge,4b03984ff964a520db4f22e3,37.723009877300576,-122.43621031743807,Bar,Bars,Bar,4bf58dd8d48988d116941735
270,Annex,4b79df46f964a52072172fe3,37.70596406555044,-122.46148076212567,Dive Bar,Dive Bars,Dive Bar,4bf58dd8d48988d118941735
271,The Ave Bar,4cb9db8c43ec6dcbb724a031,37.72454281455243,-122.45935827448322,Bar,Bars,Bar,4bf58dd8d48988d116941735
272,Ralston,4ea7a8efb8034ce4bced631f,37.72078770761517,-122.46923884720123,Speakeasy,Speakeasies,Speakeasy,4bf58dd8d48988d1d4941735
273,Last Stop,58d5bda42a19825836bb98bd,37.70671203483266,-122.45885215764186,Sports Bar,Sports Bars,Sports Bar,4bf58dd8d48988d11d941735
274,Fog City Hookah Bar & Grill,54b0e67b498e594f4ba5f6be,37.69005064289412,-122.46551293752027,Hookah Bar,Hookah Bars,Hookah Bar,4bf58dd8d48988d119941735
275,Miraloma Club,429f9d80f964a520c6241fe3,37.743906019837034,-122.45366175740402,Dive Bar,Dive Bars,Dive Bar,4bf58dd8d48988d118941735
276,Mike's Liquors,4a0e082af964a520bb751fe3,37.717047624051986,-122.44069948494237,Liquor Store,Liquor Stores,Liquor Store,4bf58dd8d48988d186941735
277,Friends Bar,4ae7ed0cf964a520dfad21e3,37.73168186307918,-122.44791211353864,Bar,Bars,Bar,4bf58dd8d48988d116941735
278,McCarthy's Irish Bar,510c7fa6e4b0ca91e900783d,37.74040241728515,-122.4665463457005,Pub,Pubs,Pub,4bf58dd8d48988d11b941735
279,The Dark Horse Inn,4ec020bbb8f7963bcdde0f6b,37.716127089376435,-122.44037320223659,Bar,Bars,Bar,4bf58dd8d48988d116941735
280,Rocks Den,565a5593498e67464ff1fb2d,37.7272603284223,-122.43283844792182,Sports Bar,Sports Bars,Sports Bar,4bf58dd8d48988d11d941735
281,Shannon Arms,4a60bfa1f964a52022c11fe3,37.743010129627564,-122.47596155308086,Pub,Pubs,Pub,4bf58dd8d48988d11b941735
282,OneUp Bar,546ffaaf498e44efc06cff7a,37.754357021306866,-122.47708023538158,Bar,Bars,Bar,4bf58dd8d48988d116941735
283,Costello's Four Deuces,4ada6b37f964a5206d2221e3,37.7422266969686,-122.49113081328775,Bar,Bars,Bar,4bf58dd8d48988d116941735
284,The Four Deuces,5251bac6498e62cb962b6c61,37.74223101224503,-122.49110628014726,Bar,Bars,Bar,4bf58dd8d48988d116941735
285,Witch Doctor's Lounge,5a0fc712286fda3f036346b0,37.720676,-122.43802,Bar,Bars,Bar,4bf58dd8d48988d116941735
286,Boomerang Cocktail Lounge,4bbacdec98c7ef3b83863302,37.754191576284065,-122.47914397727983,Cocktail Bar,Cocktail Bars,Cocktail,4bf58dd8d48988d11e941735
287,Geneva Pub,4b6f91abf964a52037f62ce3,37.714242636406595,-122.43641500549084,Bar,Bars,Bar,4bf58dd8d48988d116941735
288,Que Syrah,4bf6c1645efe2d7fdab16734,37.73859938571756,-122.46852822019164,Wine Bar,Wine Bars,Wine Bar,4bf58dd8d48988d123941735
289,The Connection,4c12be52a9c220a1aa91549d,37.70974081507923,-122.4501494702126,Dive Bar,Dive Bars,Dive Bar,4bf58dd8d48988d118941735
290,United Irish Cultural Center,4a6cba4bf964a5206fd11fe3,37.73585877924533,-122.50303636090925,Event Space,Event Spaces,Event Space,4bf58dd8d48988d171941735
291,Grandma's Saloon,4b08ee17f964a520681323e3,37.74304400999787,-122.47704646359036,Dive Bar,Dive Bars,Dive Bar,4bf58dd8d48988d118941735
292,78 Miramar Place,4d923218270e6ea8b33f64ff,37.719783,-122.457955,Beer Garden,Beer Gardens,Beer Garden,4bf58dd8d48988d117941735
293,85C Bakery Cafe - Stonestown,5b942774deb4950025220c76,37.72791847111096,-122.47628171618449,Bakery,Bakeries,Bakery,4bf58dd8d48988d16a941735
294,Boudin Bakery Café Stonestown,4aecaa99f964a52019ca21e3,37.728669,-122.476886,Bakery,Bakeries,Bakery,4bf58dd8d48988d16a941735
295,Krispy Kreme Doughnuts,49f3ecb0f964a520eb6a1fe3,37.688771,-122.471606,Donut Shop,Donut Shops,Donuts,4bf58dd8d48988d148941735
296,Sheng Kee Bakery,4b788040f964a52084d22ee3,37.69899594115916,-122.48220150046158,Bakery,Bakeries,Bakery,4bf58dd8d48988d16a941735
297,La Baguette,529d49c111d27cfebb6c8740,37.72716748968099,-122.47723824286889,Bakery,Bakeries,Bakery,4bf58dd8d48988d16a941735
298,Cocola Bakery,4b3fd429f964a520e3af25e3,37.72784218971036,-122.4767595204661,Bakery,Bakeries,Bakery,4bf58dd8d48988d16a941735
299,Noe Valley Bakery,5817b85138fa18081795a194,37.74056451440146,-122.46628414888933,Bakery,Bakeries,Bakery,4bf58dd8d48988d16a941735
300,Cafe Bakery & Restaurant,4ab81a99f964a520357c20e3,37.75417144724461,-122.4781683793777,Bakery,Bakeries,Bakery,4bf58dd8d48988d16a941735
301,Le Bread Express,57ba448b498e2dc8c6d2c251,37.728757,-122.477223,Bakery,Bakeries,Bakery,4bf58dd8d48988d16a941735
302,Mr. Bread,56a52b02498e66937df2494d,37.74303448217439,-122.47717087703009,Bakery,Bakeries,Bakery,4bf58dd8d48988d16a941735
303,Goldilocks,574cabe6498eaa071d281d6b,37.706713264409444,-122.45987176392525,Bakery,Bakeries,Bakery,4bf58dd8d48988d16a941735
304,Ambrosia Bakery,4b42ca2ff964a520e9d925e3,37.73168360422749,-122.4734619126952,Bakery,Bakeries,Bakery,4bf58dd8d48988d16a941735
305,Red Ribbon Bakeshop,457da3f2f964a5202d3f1fe3,37.697229787882,-122.46293190496694,Bakery,Bakeries,Bakery,4bf58dd8d48988d16a941735
306,Hilda's Mart and Bake Shop,4a58c8b8f964a520dbb71fe3,37.72251097057312,-122.43454860403548,Bakery,Bakeries,Bakery,4bf58dd8d48988d16a941735
307,T28 Bakery and Cafe,4af9013ff964a520cf1022e3,37.74255955704313,-122.48528384519466,Chinese Restaurant,Chinese Restaurants,Chinese,4bf58dd8d48988d145941735
308,Good Orchard Bakery,4f08d48be4b0803b69422aed,37.72339609803051,-122.43574523596273,Bakery,Bakeries,Bakery,4bf58dd8d48988d16a941735
309,Boss Bakery,5c02e7935ba046002c49e6fb,37.753704,-122.49087,Bakery,Bakeries,Bakery,4bf58dd8d48988d16a941735
310,Nothing Bundt Cakes,5790028ecd10259c409605b7,37.699752375389245,-122.48377150302076,Bakery,Bakeries,Bakery,4bf58dd8d48988d16a941735
311,Cafe Bakery,4e32f7af18a8efdb1753a5c0,37.75409663054946,-122.47834299637326,Bakery,Bakeries,Bakery,4bf58dd8d48988d16a941735
312,Rolling Out,4eea6f00f9ab8fc95f202984,37.742775160440196,-122.48475305140774,Café,Cafés,Café,4bf58dd8d48988d16d941735
313,A-1 Bakery,4bbf523e98f49521956bd263,37.72480202387042,-122.46064141432204,Bakery,Bakeries,Bakery,4bf58dd8d48988d16a941735
314,Kahve Diyarım,53c19b5a498eb5bf28f7e61f,37.771511083102396,37.837500608300246,Café,Cafés,Café,4bf58dd8d48988d16d941735
315,Kahve Diyarım,53c19b5a498eb5bf28f7e61f,37.771511083102396,37.837500608300246,Café,Cafés,Café,4bf58dd8d48988d16d941735
316,Marugame Udon,5a3b267d4940bc2abc94d088,37.72753502992446,-122.47614774426498,Udon Restaurant,Udon Restaurants,Udon,55a59bace4b013909087cb2a
317,In-N-Out Burger,457c6a6df964a520093f1fe3,37.68826935148615,-122.47197300195694,Burger Joint,Burger Joints,Burgers,4bf58dd8d48988d16c941735
318,Shihlin Taiwan Street Snacks 士林臺灣小吃,5b09e2e398fbfc002c028929,37.727817534627626,-122.47646649433597,Taiwanese Restaurant,Taiwanese Restaurants,Taiwanese,52af3b813cf9994f4e043c04
319,Blaze Pizza,55145ef3498e4d9691a639d5,37.727931,-122.476536,Pizza Place,Pizza Places,Pizza,4bf58dd8d48988d1ca941735
320,85C Bakery Cafe - Stonestown,5b942774deb4950025220c76,37.72791847111096,-122.47628171618449,Bakery,Bakeries,Bakery,4bf58dd8d48988d16a941735
321,McDonald's,4a8972e5f964a5200b0820e3,37.7264084,-122.4763127,Fast Food Restaurant,Fast Food Restaurants,Fast Food,4bf58dd8d48988d16e941735
322,Starbucks,4310fe80f964a52051271fe3,37.74474068,-122.4526744,Coffee Shop,Coffee Shops,Coffee Shop,4bf58dd8d48988d1e0931735
323,Starbucks,4abfc3d1f964a5200f9220e3,37.699575,-122.481762,Coffee Shop,Coffee Shops,Coffee Shop,4bf58dd8d48988d1e0931735
324,Marketplace Cafe,573b2c2e38faeff59fd2bb9a,37.726605654060464,-122.47750103473663,Café,Cafés,Café,4bf58dd8d48988d16d941735
325,Stonestown Galleria Food Court,4b7715bff964a520d27b2ee3,37.72803126482387,-122.47708797454834,Food Court,Food Courts,Food Court,4bf58dd8d48988d120951735
326,Peet's Coffee & Tea,5227b1b08bfdf21a788fc5a0,37.727715,-122.476555,Coffee Shop,Coffee Shops,Coffee Shop,4bf58dd8d48988d1e0931735
327,Philz Coffee,56eeb771498e0692c105a6f7,37.723478884185766,-122.45374876198406,Coffee Shop,Coffee Shops,Coffee Shop,4bf58dd8d48988d1e0931735
328,Original Joe's Westlake,56a2acbd498ee1a54d04a90b,37.70155964783083,-122.48549401760101,Italian Restaurant,Italian Restaurants,Italian,4bf58dd8d48988d110941735
329,Starbucks,49e262daf964a52012621fe3,37.73966759184441,-122.46727108843436,Coffee Shop,Coffee Shops,Coffee Shop,4bf58dd8d48988d1e0931735
330,Boudin Bakery Café Stonestown,4aecaa99f964a52019ca21e3,37.728669,-122.476886,Bakery,Bakeries,Bakery,4bf58dd8d48988d16a941735
331,Olive Garden,46d715faf964a5206c4a1fe3,37.72743193152167,-122.47621065614784,Italian Restaurant,Italian Restaurants,Italian,4bf58dd8d48988d110941735
332,Jollibee,4b14f8a6f964a5209ca723e3,37.69727551178855,-122.46374254371321,Fast Food Restaurant,Fast Food Restaurants,Fast Food,4bf58dd8d48988d16e941735
333,See's Candies,4b5ba39ff964a520db0c29e3,37.72787026212226,-122.47695621960317,Candy Store,Candy Stores,Candy Store,4bf58dd8d48988d117951735
334,"Andytown Roastery, Training Lab & Coffee Supply",58b76a25fc5a5f1dcd7b248d,37.742142085707165,-122.49856601193528,Coffee Shop,Coffee Shops,Coffee Shop,4bf58dd8d48988d1e0931735
335,Panda Express,51feb67c498ee2b1cc4f9071,37.69899267171932,-122.48228128326623,Chinese Restaurant,Chinese Restaurants,Chinese,4bf58dd8d48988d145941735
336,Dumpling Kitchen,4b78acfdf964a52063dd2ee3,37.74249006365133,-122.48705915184706,Dumpling Restaurant,Dumpling Restaurants,Dumplings,4bf58dd8d48988d108941735
337,Eggxotic,5adced10829b0c3e3ba14268,37.72786806401975,-122.47671050075766,Dessert Shop,Dessert Shops,Desserts,4bf58dd8d48988d1d0941735
338,House of Coffee,4ac90c72f964a5204bbe20e3,37.75389654518352,-122.48000750178221,Coffee Shop,Coffee Shops,Coffee Shop,4bf58dd8d48988d1e0931735
339,Rice Garden,4a90c961f964a520751920e3,37.73322125886823,-122.48990367235506,Chinese Restaurant,Chinese Restaurants,Chinese,4bf58dd8d48988d145941735
340,Kukje Deli & Sushi,557c9b63498efc1a4b9ab589,37.69454348561457,-122.47140103972231,Deli / Bodega,Delis / Bodegas,Deli / Bodega,4bf58dd8d48988d146941735
341,Andytown,58c5fda9c30f791c62a37beb,37.74167718755977,-122.50519325872216,Coffee Shop,Coffee Shops,Coffee Shop,4bf58dd8d48988d1e0931735
342,McDonald's,4a60277ff964a520b9c01fe3,37.723494,-122.455453,Fast Food Restaurant,Fast Food Restaurants,Fast Food,4bf58dd8d48988d16e941735
343,Phở Huỹnh Hiệp 3 - Kevin's Noodle House,4a7ddc63f964a520f1ef1fe3,37.698173548515314,-122.4815606515754,Vietnamese Restaurant,Vietnamese Restaurants,Vietnamese,4bf58dd8d48988d14a941735
344,Panda Express,47f191bdf964a5208d4e1fe3,37.72785431561873,-122.47691789721206,Chinese Restaurant,Chinese Restaurants,Chinese,4bf58dd8d48988d145941735
345,Boulevard Cafe,49e9de32f964a52006661fe3,37.70395577861726,-122.4753953408699,Diner,Diners,Diner,4bf58dd8d48988d147941735
346,Yi Fang Taiwan Fruit Tea,5c15df1c838e59002cb89455,37.728126,-122.477218,Bubble Tea Shop,Bubble Tea Shops,Bubble Tea,52e81612bcbc57f1066b7a0c
347,Stonestown Farmers Market,4ac8eec6f964a52062bd20e3,37.730126917341096,-122.47915000470392,Farmers Market,Farmers Markets,Farmer's Market,4bf58dd8d48988d1fa941735
348,Banana Island,43c50166f964a5205f2d1fe3,37.69979519435566,-122.48341784352344,Malay Restaurant,Malay Restaurants,Malay,4bf58dd8d48988d156941735
349,La Corneta,45052b29f964a520e5381fe3,37.733913724338414,-122.43406148207286,Mexican Restaurant,Mexican Restaurants,Mexican,4bf58dd8d48988d1c1941735
350,Home,54dfed34498edb2219438f71,37.7543481049095,-122.47697284054232,Coffee Shop,Coffee Shops,Coffee Shop,4bf58dd8d48988d1e0931735
351,Starbucks,4a45130cf964a520bca71fe3,37.72795856,-122.4768031,Coffee Shop,Coffee Shops,Coffee Shop,4bf58dd8d48988d1e0931735
352,Peet's Coffee & Tea,5070aafd498e62f9b503da5e,37.733589,-122.489709,Coffee Shop,Coffee Shops,Coffee Shop,4bf58dd8d48988d1e0931735
353,McDonald's,4b0f6683f964a520066223e3,37.69203,-122.471282,Fast Food Restaurant,Fast Food Restaurants,Fast Food,4bf58dd8d48988d16e941735
354,Gene's Liquor & Deli,4b8f494ff964a520715033e3,37.742384443021436,-122.489760185854,Liquor Store,Liquor Stores,Liquor Store,4bf58dd8d48988d186941735
355,Espresso Bar,573b2c2f38faeff59fd2c102,37.72655898181562,-122.47753322124481,Café,Cafés,Café,4bf58dd8d48988d16d941735
356,Peet's Coffee & Tea,4a65e91bf964a520b2c71fe3,37.740337,-122.466617,Coffee Shop,Coffee Shops,Coffee Shop,4bf58dd8d48988d1e0931735
357,Leaping Lemur Café,4b65edd2f964a520f9082be3,37.733188267410355,-122.50323951244354,Café,Cafés,Café,4bf58dd8d48988d16d941735
358,Chipotle Mexican Grill,4a95bfc4f964a520782420e3,37.70144292177419,-122.48255535575463,Mexican Restaurant,Mexican Restaurants,Mexican,4bf58dd8d48988d1c1941735
359,Natural Sensations,4ad4e412f964a52079fc20e3,37.72202083586753,-122.4786118142431,Juice Bar,Juice Bars,Juice Bar,4bf58dd8d48988d112941735
360,Krispy Kreme Doughnuts,49f3ecb0f964a520eb6a1fe3,37.688771,-122.471606,Donut Shop,Donut Shops,Donuts,4bf58dd8d48988d148941735
361,Starbucks,4d14d53085fc6dcb9b459b4e,37.697357,-122.46297,Coffee Shop,Coffee Shops,Coffee Shop,4bf58dd8d48988d1e0931735
362,Golden Island Cafe,4a7501d4f964a52042e01fe3,37.7543180370544,-122.47772634029388,Dessert Shop,Dessert Shops,Desserts,4bf58dd8d48988d1d0941735
363,One Waan Thai Restaurant,5823c2cdffb2193e58703e34,37.733184366884934,-122.43438600009608,Restaurant,Restaurants,Restaurant,4bf58dd8d48988d1c4941735
364,Cafe Rosso,4aa0126af964a5202b3e20e3,37.722881250301704,-122.48044244333092,Café,Cafés,Café,4bf58dd8d48988d16d941735
365,Sheng Kee Bakery,4b788040f964a52084d22ee3,37.69899594115916,-122.48220150046158,Bakery,Bakeries,Bakery,4bf58dd8d48988d16a941735
366,Tiki Haven,4d844c6bf1e56ea8f8a9728a,37.75428962812687,-122.47815665849926,Tiki Bar,Tiki Bars,Tiki Bar,56aa371be4b08b9a8d57354d
367,White Cap,5a06582e0802d42aa2b760b6,37.74185587001411,-122.5048392552865,Cocktail Bar,Cocktail Bars,Cocktail,4bf58dd8d48988d11e941735
368,Sunset Reservoir Brewing Company,53e281f0498ec42c8bc221b1,37.753874496325835,-122.48237977993593,Brewery,Breweries,Brewery,50327c8591d4c4b30a586d5d
369,Kim's Palace,4dbcb83c4b222080d39a027b,37.685178,-122.480398,Other Nightlife,Other Nightlife,Nightlife,4bf58dd8d48988d11a941735
370,Philosopher's Club,49f35a25f964a520916a1fe3,37.740894965026094,-122.46553217465589,Bar,Bars,Bar,4bf58dd8d48988d116941735
371,Underdogs Too,5c170ddd5f68b9002c632e5c,37.741892,-122.504763,Taco Place,Taco Places,Tacos,4bf58dd8d48988d151941735
372,Glen Park Station,563ef865cd10b88df828028e,37.734188619314516,-122.43417077944143,Dive Bar,Dive Bars,Dive Bar,4bf58dd8d48988d118941735
373,Riptide,4d3c6a863ec9a35dfd644881,37.74168550676124,-122.50532321284336,Dive Bar,Dive Bars,Dive Bar,4bf58dd8d48988d118941735
374,Parkside Tavern,4a86114cf964a520480020e3,37.74267218305755,-122.48716050410408,Gastropub,Gastropubs,Gastropub,4bf58dd8d48988d155941735
375,Recovery Room,5adc0e021acf113ad0f6a9fa,37.725465862309946,-122.4343419070651,Bar,Bars,Bar,4bf58dd8d48988d116941735
376,After Hours,59d2e347237dee5208cbee53,37.742176320139876,-122.49894691565898,Bar,Bars,Bar,4bf58dd8d48988d116941735
377,Val's Restaurant and Lounge,4b552a7cf964a5206cdd27e3,37.69173055507953,-122.47129341624898,Steakhouse,Steakhouses,Steakhouse,4bf58dd8d48988d1cc941735
378,Voiz Karaoke,4b9352f6f964a520164034e3,37.74323505498939,-122.47107766653484,Karaoke Bar,Karaoke Bars,Karaoke,4bf58dd8d48988d120941735
379,The Dubliner,4a69315df964a520c2cb1fe3,37.737683802880035,-122.46956056412179,Pub,Pubs,Pub,4bf58dd8d48988d11b941735
380,Tselogs,56419548498ea7da4bc2641b,37.70686423060626,-122.45885464229286,Lounge,Lounges,Lounge,4bf58dd8d48988d121941735
381,Parkside Hookah,4c9316872bf7b60c8854680a,37.741585877747525,-122.47570317460121,Hookah Bar,Hookah Bars,Hookah Bar,4bf58dd8d48988d119941735
382,Vin Debut,5674ee88498e64d8f28af57d,37.74076964714903,-122.46580562928152,Wine Bar,Wine Bars,Wine Bar,4bf58dd8d48988d123941735
383,Fire Fly Sports Bar,4b724069f964a5209b752de3,37.75353906930099,-122.49028328559612,Bar,Bars,Bar,4bf58dd8d48988d116941735
384,Bottoms Up Bar & Lounge,4b03984ff964a520db4f22e3,37.723009877300576,-122.43621031743807,Bar,Bars,Bar,4bf58dd8d48988d116941735
385,Annex,4b79df46f964a52072172fe3,37.70596406555044,-122.46148076212567,Dive Bar,Dive Bars,Dive Bar,4bf58dd8d48988d118941735
386,The Ave Bar,4cb9db8c43ec6dcbb724a031,37.72454281455243,-122.45935827448322,Bar,Bars,Bar,4bf58dd8d48988d116941735
387,Ralston,4ea7a8efb8034ce4bced631f,37.72078770761517,-122.46923884720123,Speakeasy,Speakeasies,Speakeasy,4bf58dd8d48988d1d4941735
388,Last Stop,58d5bda42a19825836bb98bd,37.70671203483266,-122.45885215764186,Sports Bar,Sports Bars,Sports Bar,4bf58dd8d48988d11d941735
389,Fog City Hookah Bar & Grill,54b0e67b498e594f4ba5f6be,37.69005064289412,-122.46551293752027,Hookah Bar,Hookah Bars,Hookah Bar,4bf58dd8d48988d119941735
390,Miraloma Club,429f9d80f964a520c6241fe3,37.743906019837034,-122.45366175740402,Dive Bar,Dive Bars,Dive Bar,4bf58dd8d48988d118941735
391,Mike's Liquors,4a0e082af964a520bb751fe3,37.717047624051986,-122.44069948494237,Liquor Store,Liquor Stores,Liquor Store,4bf58dd8d48988d186941735
392,Friends Bar,4ae7ed0cf964a520dfad21e3,37.73168186307918,-122.44791211353864,Bar,Bars,Bar,4bf58dd8d48988d116941735
393,McCarthy's Irish Bar,510c7fa6e4b0ca91e900783d,37.74040241728515,-122.4665463457005,Pub,Pubs,Pub,4bf58dd8d48988d11b941735
394,The Lister Bar,54cca8ba498ea0f008da6b4b,37.71760715080541,-122.47383121921574,Nightclub,Nightclubs,Nightclub,4bf58dd8d48988d11f941735
395,The Dark Horse Inn,4ec020bbb8f7963bcdde0f6b,37.716127089376435,-122.44037320223659,Bar,Bars,Bar,4bf58dd8d48988d116941735
396,Rocks Den,565a5593498e67464ff1fb2d,37.7272603284223,-122.43283844792182,Sports Bar,Sports Bars,Sports Bar,4bf58dd8d48988d11d941735
397,Shannon Arms,4a60bfa1f964a52022c11fe3,37.743010129627564,-122.47596155308086,Pub,Pubs,Pub,4bf58dd8d48988d11b941735
398,OneUp Bar,546ffaaf498e44efc06cff7a,37.754357021306866,-122.47708023538158,Bar,Bars,Bar,4bf58dd8d48988d116941735
399,Costello's Four Deuces,4ada6b37f964a5206d2221e3,37.7422266969686,-122.49113081328775,Bar,Bars,Bar,4bf58dd8d48988d116941735
400,The Four Deuces,5251bac6498e62cb962b6c61,37.74223101224503,-122.49110628014726,Bar,Bars,Bar,4bf58dd8d48988d116941735
401,Witch Doctor's Lounge,5a0fc712286fda3f036346b0,37.720676,-122.43802,Bar,Bars,Bar,4bf58dd8d48988d116941735
402,Boomerang Cocktail Lounge,4bbacdec98c7ef3b83863302,37.754191576284065,-122.47914397727983,Cocktail Bar,Cocktail Bars,Cocktail,4bf58dd8d48988d11e941735
403,Geneva Pub,4b6f91abf964a52037f62ce3,37.714242636406595,-122.43641500549084,Bar,Bars,Bar,4bf58dd8d48988d116941735
404,Sippin  Wine Bar,5594a168498ec339e9ee3a4e,37.72301655381866,-122.43628491699751,Lounge,Lounges,Lounge,4bf58dd8d48988d121941735
405,Que Syrah,4bf6c1645efe2d7fdab16734,37.73859938571756,-122.46852822019164,Wine Bar,Wine Bars,Wine Bar,4bf58dd8d48988d123941735
406,The Connection,4c12be52a9c220a1aa91549d,37.70974081507923,-122.4501494702126,Dive Bar,Dive Bars,Dive Bar,4bf58dd8d48988d118941735
407,United Irish Cultural Center,4a6cba4bf964a5206fd11fe3,37.73585877924533,-122.50303636090925,Event Space,Event Spaces,Event Space,4bf58dd8d48988d171941735
408,Grandma's Saloon,4b08ee17f964a520681323e3,37.74304400999787,-122.47704646359036,Dive Bar,Dive Bars,Dive Bar,4bf58dd8d48988d118941735
409,Lounge 2,4d8ef5f9cb9b224b70b89041,37.75331963382334,-122.47599932038837,Lounge,Lounges,Lounge,4bf58dd8d48988d121941735
410,78 Miramar Place,4d923218270e6ea8b33f64ff,37.719783,-122.457955,Beer Garden,Beer Gardens,Beer Garden,4bf58dd8d48988d117941735
411,Tiki Haven,4d844c6bf1e56ea8f8a9728a,37.75428962812687,-122.47815665849926,Tiki Bar,Tiki Bars,Tiki Bar,56aa371be4b08b9a8d57354d
412,White Cap,5a06582e0802d42aa2b760b6,37.74185587001411,-122.5048392552865,Cocktail Bar,Cocktail Bars,Cocktail,4bf58dd8d48988d11e941735
413,Philosopher's Club,49f35a25f964a520916a1fe3,37.740894965026094,-122.46553217465589,Bar,Bars,Bar,4bf58dd8d48988d116941735
414,Underdogs Too,5c170ddd5f68b9002c632e5c,37.741892,-122.504763,Taco Place,Taco Places,Tacos,4bf58dd8d48988d151941735
415,Glen Park Station,563ef865cd10b88df828028e,37.734188619314516,-122.43417077944143,Dive Bar,Dive Bars,Dive Bar,4bf58dd8d48988d118941735
416,Riptide,4d3c6a863ec9a35dfd644881,37.74168550676124,-122.50532321284336,Dive Bar,Dive Bars,Dive Bar,4bf58dd8d48988d118941735
417,Parkside Tavern,4a86114cf964a520480020e3,37.74267218305755,-122.48716050410408,Gastropub,Gastropubs,Gastropub,4bf58dd8d48988d155941735
418,Recovery Room,5adc0e021acf113ad0f6a9fa,37.725465862309946,-122.4343419070651,Bar,Bars,Bar,4bf58dd8d48988d116941735
419,After Hours,59d2e347237dee5208cbee53,37.742176320139876,-122.49894691565898,Bar,Bars,Bar,4bf58dd8d48988d116941735
420,Val's Restaurant and Lounge,4b552a7cf964a5206cdd27e3,37.69173055507953,-122.47129341624898,Steakhouse,Steakhouses,Steakhouse,4bf58dd8d48988d1cc941735
421,Voiz Karaoke,4b9352f6f964a520164034e3,37.74323505498939,-122.47107766653484,Karaoke Bar,Karaoke Bars,Karaoke,4bf58dd8d48988d120941735
422,The Dubliner,4a69315df964a520c2cb1fe3,37.737683802880035,-122.46956056412179,Pub,Pubs,Pub,4bf58dd8d48988d11b941735
423,Parkside Hookah,4c9316872bf7b60c8854680a,37.741585877747525,-122.47570317460121,Hookah Bar,Hookah Bars,Hookah Bar,4bf58dd8d48988d119941735
424,Vin Debut,5674ee88498e64d8f28af57d,37.74076964714903,-122.46580562928152,Wine Bar,Wine Bars,Wine Bar,4bf58dd8d48988d123941735
425,Fire Fly Sports Bar,4b724069f964a5209b752de3,37.75353906930099,-122.49028328559612,Bar,Bars,Bar,4bf58dd8d48988d116941735
426,Bottoms Up Bar & Lounge,4b03984ff964a520db4f22e3,37.723009877300576,-122.43621031743807,Bar,Bars,Bar,4bf58dd8d48988d116941735
427,Annex,4b79df46f964a52072172fe3,37.70596406555044,-122.46148076212567,Dive Bar,Dive Bars,Dive Bar,4bf58dd8d48988d118941735
428,The Ave Bar,4cb9db8c43ec6dcbb724a031,37.72454281455243,-122.45935827448322,Bar,Bars,Bar,4bf58dd8d48988d116941735
429,Ralston,4ea7a8efb8034ce4bced631f,37.72078770761517,-122.46923884720123,Speakeasy,Speakeasies,Speakeasy,4bf58dd8d48988d1d4941735
430,Last Stop,58d5bda42a19825836bb98bd,37.70671203483266,-122.45885215764186,Sports Bar,Sports Bars,Sports Bar,4bf58dd8d48988d11d941735
431,Fog City Hookah Bar & Grill,54b0e67b498e594f4ba5f6be,37.69005064289412,-122.46551293752027,Hookah Bar,Hookah Bars,Hookah Bar,4bf58dd8d48988d119941735
432,Mike's Liquors,4a0e082af964a520bb751fe3,37.717047624051986,-122.44069948494237,Liquor Store,Liquor Stores,Liquor Store,4bf58dd8d48988d186941735
433,Miraloma Club,429f9d80f964a520c6241fe3,37.743906019837034,-122.45366175740402,Dive Bar,Dive Bars,Dive Bar,4bf58dd8d48988d118941735
434,Friends Bar,4ae7ed0cf964a520dfad21e3,37.73168186307918,-122.44791211353864,Bar,Bars,Bar,4bf58dd8d48988d116941735
435,McCarthy's Irish Bar,510c7fa6e4b0ca91e900783d,37.74040241728515,-122.4665463457005,Pub,Pubs,Pub,4bf58dd8d48988d11b941735
436,The Dark Horse Inn,4ec020bbb8f7963bcdde0f6b,37.716127089376435,-122.44037320223659,Bar,Bars,Bar,4bf58dd8d48988d116941735
437,Rocks Den,565a5593498e67464ff1fb2d,37.7272603284223,-122.43283844792182,Sports Bar,Sports Bars,Sports Bar,4bf58dd8d48988d11d941735
438,Shannon Arms,4a60bfa1f964a52022c11fe3,37.743010129627564,-122.47596155308086,Pub,Pubs,Pub,4bf58dd8d48988d11b941735
439,OneUp Bar,546ffaaf498e44efc06cff7a,37.754357021306866,-122.47708023538158,Bar,Bars,Bar,4bf58dd8d48988d116941735
440,Costello's Four Deuces,4ada6b37f964a5206d2221e3,37.7422266969686,-122.49113081328775,Bar,Bars,Bar,4bf58dd8d48988d116941735
441,The Four Deuces,5251bac6498e62cb962b6c61,37.74223101224503,-122.49110628014726,Bar,Bars,Bar,4bf58dd8d48988d116941735
442,Witch Doctor's Lounge,5a0fc712286fda3f036346b0,37.720676,-122.43802,Bar,Bars,Bar,4bf58dd8d48988d116941735
443,Boomerang Cocktail Lounge,4bbacdec98c7ef3b83863302,37.754191576284065,-122.47914397727983,Cocktail Bar,Cocktail Bars,Cocktail,4bf58dd8d48988d11e941735
444,Geneva Pub,4b6f91abf964a52037f62ce3,37.714242636406595,-122.43641500549084,Bar,Bars,Bar,4bf58dd8d48988d116941735
445,Que Syrah,4bf6c1645efe2d7fdab16734,37.73859938571756,-122.46852822019164,Wine Bar,Wine Bars,Wine Bar,4bf58dd8d48988d123941735
446,The Connection,4c12be52a9c220a1aa91549d,37.70974081507923,-122.4501494702126,Dive Bar,Dive Bars,Dive Bar,4bf58dd8d48988d118941735
447,United Irish Cultural Center,4a6cba4bf964a5206fd11fe3,37.73585877924533,-122.50303636090925,Event Space,Event Spaces,Event Space,4bf58dd8d48988d171941735
448,Grandma's Saloon,4b08ee17f964a520681323e3,37.74304400999787,-122.47704646359036,Dive Bar,Dive Bars,Dive Bar,4bf58dd8d48988d118941735
449,78 Miramar Place,4d923218270e6ea8b33f64ff,37.719783,-122.457955,Beer Garden,Beer Gardens,Beer Garden,4bf58dd8d48988d117941735
450,85C Bakery Cafe - Stonestown,5b942774deb4950025220c76,37.72791847111096,-122.47628171618449,Bakery,Bakeries,Bakery,4bf58dd8d48988d16a941735
451,Boudin Bakery Café Stonestown,4aecaa99f964a52019ca21e3,37.728669,-122.476886,Bakery,Bakeries,Bakery,4bf58dd8d48988d16a941735
452,Krispy Kreme Doughnuts,49f3ecb0f964a520eb6a1fe3,37.688771,-122.471606,Donut Shop,Donut Shops,Donuts,4bf58dd8d48988d148941735
453,Sheng Kee Bakery,4b788040f964a52084d22ee3,37.69899594115916,-122.48220150046158,Bakery,Bakeries,Bakery,4bf58dd8d48988d16a941735
454,La Baguette,529d49c111d27cfebb6c8740,37.72716748968099,-122.47723824286889,Bakery,Bakeries,Bakery,4bf58dd8d48988d16a941735
455,Cocola Bakery,4b3fd429f964a520e3af25e3,37.72784218971036,-122.4767595204661,Bakery,Bakeries,Bakery,4bf58dd8d48988d16a941735
456,Noe Valley Bakery,5817b85138fa18081795a194,37.74056451440146,-122.46628414888933,Bakery,Bakeries,Bakery,4bf58dd8d48988d16a941735
457,Cafe Bakery & Restaurant,4ab81a99f964a520357c20e3,37.75417144724461,-122.4781683793777,Bakery,Bakeries,Bakery,4bf58dd8d48988d16a941735
458,Le Bread Express,57ba448b498e2dc8c6d2c251,37.728757,-122.477223,Bakery,Bakeries,Bakery,4bf58dd8d48988d16a941735
459,Mr. Bread,56a52b02498e66937df2494d,37.74303448217439,-122.47717087703009,Bakery,Bakeries,Bakery,4bf58dd8d48988d16a941735
460,Goldilocks,574cabe6498eaa071d281d6b,37.706713264409444,-122.45987176392525,Bakery,Bakeries,Bakery,4bf58dd8d48988d16a941735
461,Ambrosia Bakery,4b42ca2ff964a520e9d925e3,37.73168360422749,-122.4734619126952,Bakery,Bakeries,Bakery,4bf58dd8d48988d16a941735
462,Red Ribbon Bakeshop,457da3f2f964a5202d3f1fe3,37.697229787882,-122.46293190496694,Bakery,Bakeries,Bakery,4bf58dd8d48988d16a941735
463,Hilda's Mart and Bake Shop,4a58c8b8f964a520dbb71fe3,37.72251097057312,-122.43454860403548,Bakery,Bakeries,Bakery,4bf58dd8d48988d16a941735
464,T28 Bakery and Cafe,4af9013ff964a520cf1022e3,37.74255955704313,-122.48528384519466,Chinese Restaurant,Chinese Restaurants,Chinese,4bf58dd8d48988d145941735
465,Good Orchard Bakery,4f08d48be4b0803b69422aed,37.72339609803051,-122.43574523596273,Bakery,Bakeries,Bakery,4bf58dd8d48988d16a941735
466,Boss Bakery,5c02e7935ba046002c49e6fb,37.753704,-122.49087,Bakery,Bakeries,Bakery,4bf58dd8d48988d16a941735
467,Nothing Bundt Cakes,5790028ecd10259c409605b7,37.699752375389245,-122.48377150302076,Bakery,Bakeries,Bakery,4bf58dd8d48988d16a941735
468,Cafe Bakery,4e32f7af18a8efdb1753a5c0,37.75409663054946,-122.47834299637326,Bakery,Bakeries,Bakery,4bf58dd8d48988d16a941735
469,Rolling Out,4eea6f00f9ab8fc95f202984,37.742775160440196,-122.48475305140774,Café,Cafés,Café,4bf58dd8d48988d16d941735
470,A-1 Bakery,4bbf523e98f49521956bd263,37.72480202387042,-122.46064141432204,Bakery,Bakeries,Bakery,4bf58dd8d48988d16a941735
471,Marugame Udon,5a3b267d4940bc2abc94d088,37.72753502992446,-122.47614774426498,Udon Restaurant,Udon Restaurants,Udon,55a59bace4b013909087cb2a
472,In-N-Out Burger,457c6a6df964a520093f1fe3,37.68826935148615,-122.47197300195694,Burger Joint,Burger Joints,Burgers,4bf58dd8d48988d16c941735
473,Shihlin Taiwan Street Snacks 士林臺灣小吃,5b09e2e398fbfc002c028929,37.727817534627626,-122.47646649433597,Taiwanese Restaurant,Taiwanese Restaurants,Taiwanese,52af3b813cf9994f4e043c04
474,Blaze Pizza,55145ef3498e4d9691a639d5,37.727931,-122.476536,Pizza Place,Pizza Places,Pizza,4bf58dd8d48988d1ca941735
475,85C Bakery Cafe - Stonestown,5b942774deb4950025220c76,37.72791847111096,-122.47628171618449,Bakery,Bakeries,Bakery,4bf58dd8d48988d16a941735
476,McDonald's,4a8972e5f964a5200b0820e3,37.7264084,-122.4763127,Fast Food Restaurant,Fast Food Restaurants,Fast Food,4bf58dd8d48988d16e941735
477,Starbucks,4310fe80f964a52051271fe3,37.74474068,-122.4526744,Coffee Shop,Coffee Shops,Coffee Shop,4bf58dd8d48988d1e0931735
478,Starbucks,4abfc3d1f964a5200f9220e3,37.699575,-122.481762,Coffee Shop,Coffee Shops,Coffee Shop,4bf58dd8d48988d1e0931735
479,Marketplace Cafe,573b2c2e38faeff59fd2bb9a,37.726605654060464,-122.47750103473663,Café,Cafés,Café,4bf58dd8d48988d16d941735
480,Stonestown Galleria Food Court,4b7715bff964a520d27b2ee3,37.72803126482387,-122.47708797454834,Food Court,Food Courts,Food Court,4bf58dd8d48988d120951735
481,Peet's Coffee & Tea,5227b1b08bfdf21a788fc5a0,37.727715,-122.476555,Coffee Shop,Coffee Shops,Coffee Shop,4bf58dd8d48988d1e0931735
482,Philz Coffee,56eeb771498e0692c105a6f7,37.723478884185766,-122.45374876198406,Coffee Shop,Coffee Shops,Coffee Shop,4bf58dd8d48988d1e0931735
483,Original Joe's Westlake,56a2acbd498ee1a54d04a90b,37.70155964783083,-122.48549401760101,Italian Restaurant,Italian Restaurants,Italian,4bf58dd8d48988d110941735
484,Starbucks,49e262daf964a52012621fe3,37.73966759184441,-122.46727108843436,Coffee Shop,Coffee Shops,Coffee Shop,4bf58dd8d48988d1e0931735
485,Boudin Bakery Café Stonestown,4aecaa99f964a52019ca21e3,37.728669,-122.476886,Bakery,Bakeries,Bakery,4bf58dd8d48988d16a941735
486,Olive Garden,46d715faf964a5206c4a1fe3,37.72743193152167,-122.47621065614784,Italian Restaurant,Italian Restaurants,Italian,4bf58dd8d48988d110941735
487,Jollibee,4b14f8a6f964a5209ca723e3,37.69727551178855,-122.46374254371321,Fast Food Restaurant,Fast Food Restaurants,Fast Food,4bf58dd8d48988d16e941735
488,See's Candies,4b5ba39ff964a520db0c29e3,37.72787026212226,-122.47695621960317,Candy Store,Candy Stores,Candy Store,4bf58dd8d48988d117951735
489,"Andytown Roastery, Training Lab & Coffee Supply",58b76a25fc5a5f1dcd7b248d,37.742142085707165,-122.49856601193528,Coffee Shop,Coffee Shops,Coffee Shop,4bf58dd8d48988d1e0931735
490,Panda Express,51feb67c498ee2b1cc4f9071,37.69899267171932,-122.48228128326623,Chinese Restaurant,Chinese Restaurants,Chinese,4bf58dd8d48988d145941735
491,Dumpling Kitchen,4b78acfdf964a52063dd2ee3,37.74249006365133,-122.48705915184706,Dumpling Restaurant,Dumpling Restaurants,Dumplings,4bf58dd8d48988d108941735
492,Eggxotic,5adced10829b0c3e3ba14268,37.72786806401975,-122.47671050075766,Dessert Shop,Dessert Shops,Desserts,4bf58dd8d48988d1d0941735
493,House of Coffee,4ac90c72f964a5204bbe20e3,37.75389654518352,-122.48000750178221,Coffee Shop,Coffee Shops,Coffee Shop,4bf58dd8d48988d1e0931735
494,Rice Garden,4a90c961f964a520751920e3,37.73322125886823,-122.48990367235506,Chinese Restaurant,Chinese Restaurants,Chinese,4bf58dd8d48988d145941735
495,Kukje Deli & Sushi,557c9b63498efc1a4b9ab589,37.69454348561457,-122.47140103972231,Deli / Bodega,Delis / Bodegas,Deli / Bodega,4bf58dd8d48988d146941735
496,Andytown,58c5fda9c30f791c62a37beb,37.74167718755977,-122.50519325872216,Coffee Shop,Coffee Shops,Coffee Shop,4bf58dd8d48988d1e0931735
497,McDonald's,4a60277ff964a520b9c01fe3,37.723494,-122.455453,Fast Food Restaurant,Fast Food Restaurants,Fast Food,4bf58dd8d48988d16e941735
498,Phở Huỹnh Hiệp 3 - Kevin's Noodle House,4a7ddc63f964a520f1ef1fe3,37.698173548515314,-122.4815606515754,Vietnamese Restaurant,Vietnamese Restaurants,Vietnamese,4bf58dd8d48988d14a941735
499,Panda Express,47f191bdf964a5208d4e1fe3,37.72785431561873,-122.47691789721206,Chinese Restaurant,Chinese Restaurants,Chinese,4bf58dd8d48988d145941735
500,Boulevard Cafe,49e9de32f964a52006661fe3,37.70395577861726,-122.4753953408699,Diner,Diners,Diner,4bf58dd8d48988d147941735
501,Yi Fang Taiwan Fruit Tea,5c15df1c838e59002cb89455,37.728126,-122.477218,Bubble Tea Shop,Bubble Tea Shops,Bubble Tea,52e81612bcbc57f1066b7a0c
502,Stonestown Farmers Market,4ac8eec6f964a52062bd20e3,37.730126917341096,-122.47915000470392,Farmers Market,Farmers Markets,Farmer's Market,4bf58dd8d48988d1fa941735
503,Banana Island,43c50166f964a5205f2d1fe3,37.69979519435566,-122.48341784352344,Malay Restaurant,Malay Restaurants,Malay,4bf58dd8d48988d156941735
504,La Corneta,45052b29f964a520e5381fe3,37.733913724338414,-122.43406148207286,Mexican Restaurant,Mexican Restaurants,Mexican,4bf58dd8d48988d1c1941735
505,Home,54dfed34498edb2219438f71,37.7543481049095,-122.47697284054232,Coffee Shop,Coffee Shops,Coffee Shop,4bf58dd8d48988d1e0931735
506,Starbucks,4a45130cf964a520bca71fe3,37.72795856,-122.4768031,Coffee Shop,Coffee Shops,Coffee Shop,4bf58dd8d48988d1e0931735
507,Peet's Coffee & Tea,5070aafd498e62f9b503da5e,37.733589,-122.489709,Coffee Shop,Coffee Shops,Coffee Shop,4bf58dd8d48988d1e0931735
508,McDonald's,4b0f6683f964a520066223e3,37.69203,-122.471282,Fast Food Restaurant,Fast Food Restaurants,Fast Food,4bf58dd8d48988d16e941735
509,Gene's Liquor & Deli,4b8f494ff964a520715033e3,37.742384443021436,-122.489760185854,Liquor Store,Liquor Stores,Liquor Store,4bf58dd8d48988d186941735
510,Espresso Bar,573b2c2f38faeff59fd2c102,37.72655898181562,-122.47753322124481,Café,Cafés,Café,4bf58dd8d48988d16d941735
511,Peet's Coffee & Tea,4a65e91bf964a520b2c71fe3,37.740337,-122.466617,Coffee Shop,Coffee Shops,Coffee Shop,4bf58dd8d48988d1e0931735
512,Leaping Lemur Café,4b65edd2f964a520f9082be3,37.733188267410355,-122.50323951244354,Café,Cafés,Café,4bf58dd8d48988d16d941735
513,Chipotle Mexican Grill,4a95bfc4f964a520782420e3,37.70144292177419,-122.48255535575463,Mexican Restaurant,Mexican Restaurants,Mexican,4bf58dd8d48988d1c1941735
514,Natural Sensations,4ad4e412f964a52079fc20e3,37.72202083586753,-122.4786118142431,Juice Bar,Juice Bars,Juice Bar,4bf58dd8d48988d112941735
515,Krispy Kreme Doughnuts,49f3ecb0f964a520eb6a1fe3,37.688771,-122.471606,Donut Shop,Donut Shops,Donuts,4bf58dd8d48988d148941735
516,Starbucks,4d14d53085fc6dcb9b459b4e,37.697357,-122.46297,Coffee Shop,Coffee Shops,Coffee Shop,4bf58dd8d48988d1e0931735
517,Golden Island Cafe,4a7501d4f964a52042e01fe3,37.7543180370544,-122.47772634029388,Dessert Shop,Dessert Shops,Desserts,4bf58dd8d48988d1d0941735
518,One Waan Thai Restaurant,5823c2cdffb2193e58703e34,37.733184366884934,-122.43438600009608,Restaurant,Restaurants,Restaurant,4bf58dd8d48988d1c4941735
519,Cafe Rosso,4aa0126af964a5202b3e20e3,37.722881250301704,-122.48044244333092,Café,Cafés,Café,4bf58dd8d48988d16d941735
520,Sheng Kee Bakery,4b788040f964a52084d22ee3,37.69899594115916,-122.48220150046158,Bakery,Bakeries,Bakery,4bf58dd8d48988d16a941735
521,Tiki Haven,4d844c6bf1e56ea8f8a9728a,37.75428962812687,-122.47815665849926,Tiki Bar,Tiki Bars,Tiki Bar,56aa371be4b08b9a8d57354d
522,White Cap,5a06582e0802d42aa2b760b6,37.74185587001411,-122.5048392552865,Cocktail Bar,Cocktail Bars,Cocktail,4bf58dd8d48988d11e941735
523,Sunset Reservoir Brewing Company,53e281f0498ec42c8bc221b1,37.753874496325835,-122.48237977993593,Brewery,Breweries,Brewery,50327c8591d4c4b30a586d5d
524,Kim's Palace,4dbcb83c4b222080d39a027b,37.685178,-122.480398,Other Nightlife,Other Nightlife,Nightlife,4bf58dd8d48988d11a941735
525,Philosopher's Club,49f35a25f964a520916a1fe3,37.740894965026094,-122.46553217465589,Bar,Bars,Bar,4bf58dd8d48988d116941735
526,Underdogs Too,5c170ddd5f68b9002c632e5c,37.741892,-122.504763,Taco Place,Taco Places,Tacos,4bf58dd8d48988d151941735
527,Glen Park Station,563ef865cd10b88df828028e,37.734188619314516,-122.43417077944143,Dive Bar,Dive Bars,Dive Bar,4bf58dd8d48988d118941735
528,Riptide,4d3c6a863ec9a35dfd644881,37.74168550676124,-122.50532321284336,Dive Bar,Dive Bars,Dive Bar,4bf58dd8d48988d118941735
529,Parkside Tavern,4a86114cf964a520480020e3,37.74267218305755,-122.48716050410408,Gastropub,Gastropubs,Gastropub,4bf58dd8d48988d155941735
530,Recovery Room,5adc0e021acf113ad0f6a9fa,37.725465862309946,-122.4343419070651,Bar,Bars,Bar,4bf58dd8d48988d116941735
531,After Hours,59d2e347237dee5208cbee53,37.742176320139876,-122.49894691565898,Bar,Bars,Bar,4bf58dd8d48988d116941735
532,Val's Restaurant and Lounge,4b552a7cf964a5206cdd27e3,37.69173055507953,-122.47129341624898,Steakhouse,Steakhouses,Steakhouse,4bf58dd8d48988d1cc941735
533,Voiz Karaoke,4b9352f6f964a520164034e3,37.74323505498939,-122.47107766653484,Karaoke Bar,Karaoke Bars,Karaoke,4bf58dd8d48988d120941735
534,The Dubliner,4a69315df964a520c2cb1fe3,37.737683802880035,-122.46956056412179,Pub,Pubs,Pub,4bf58dd8d48988d11b941735
535,Tselogs,56419548498ea7da4bc2641b,37.70686423060626,-122.45885464229286,Lounge,Lounges,Lounge,4bf58dd8d48988d121941735
536,Parkside Hookah,4c9316872bf7b60c8854680a,37.741585877747525,-122.47570317460121,Hookah Bar,Hookah Bars,Hookah Bar,4bf58dd8d48988d119941735
537,Vin Debut,5674ee88498e64d8f28af57d,37.74076964714903,-122.46580562928152,Wine Bar,Wine Bars,Wine Bar,4bf58dd8d48988d123941735
538,Fire Fly Sports Bar,4b724069f964a5209b752de3,37.75353906930099,-122.49028328559612,Bar,Bars,Bar,4bf58dd8d48988d116941735
539,Bottoms Up Bar & Lounge,4b03984ff964a520db4f22e3,37.723009877300576,-122.43621031743807,Bar,Bars,Bar,4bf58dd8d48988d116941735
540,Annex,4b79df46f964a52072172fe3,37.70596406555044,-122.46148076212567,Dive Bar,Dive Bars,Dive Bar,4bf58dd8d48988d118941735
541,The Ave Bar,4cb9db8c43ec6dcbb724a031,37.72454281455243,-122.45935827448322,Bar,Bars,Bar,4bf58dd8d48988d116941735
542,Ralston,4ea7a8efb8034ce4bced631f,37.72078770761517,-122.46923884720123,Speakeasy,Speakeasies,Speakeasy,4bf58dd8d48988d1d4941735
543,Last Stop,58d5bda42a19825836bb98bd,37.70671203483266,-122.45885215764186,Sports Bar,Sports Bars,Sports Bar,4bf58dd8d48988d11d941735
544,Fog City Hookah Bar & Grill,54b0e67b498e594f4ba5f6be,37.69005064289412,-122.46551293752027,Hookah Bar,Hookah Bars,Hookah Bar,4bf58dd8d48988d119941735
545,Mike's Liquors,4a0e082af964a520bb751fe3,37.717047624051986,-122.44069948494237,Liquor Store,Liquor Stores,Liquor Store,4bf58dd8d48988d186941735
546,Miraloma Club,429f9d80f964a520c6241fe3,37.743906019837034,-122.45366175740402,Dive Bar,Dive Bars,Dive Bar,4bf58dd8d48988d118941735
547,Friends Bar,4ae7ed0cf964a520dfad21e3,37.73168186307918,-122.44791211353864,Bar,Bars,Bar,4bf58dd8d48988d116941735
548,McCarthy's Irish Bar,510c7fa6e4b0ca91e900783d,37.74040241728515,-122.4665463457005,Pub,Pubs,Pub,4bf58dd8d48988d11b941735
549,The Lister Bar,54cca8ba498ea0f008da6b4b,37.71760715080541,-122.47383121921574,Nightclub,Nightclubs,Nightclub,4bf58dd8d48988d11f941735
550,The Dark Horse Inn,4ec020bbb8f7963bcdde0f6b,37.716127089376435,-122.44037320223659,Bar,Bars,Bar,4bf58dd8d48988d116941735
551,Rocks Den,565a5593498e67464ff1fb2d,37.7272603284223,-122.43283844792182,Sports Bar,Sports Bars,Sports Bar,4bf58dd8d48988d11d941735
552,Shannon Arms,4a60bfa1f964a52022c11fe3,37.743010129627564,-122.47596155308086,Pub,Pubs,Pub,4bf58dd8d48988d11b941735
553,OneUp Bar,546ffaaf498e44efc06cff7a,37.754357021306866,-122.47708023538158,Bar,Bars,Bar,4bf58dd8d48988d116941735
554,Costello's Four Deuces,4ada6b37f964a5206d2221e3,37.7422266969686,-122.49113081328775,Bar,Bars,Bar,4bf58dd8d48988d116941735
555,The Four Deuces,5251bac6498e62cb962b6c61,37.74223101224503,-122.49110628014726,Bar,Bars,Bar,4bf58dd8d48988d116941735
556,Witch Doctor's Lounge,5a0fc712286fda3f036346b0,37.720676,-122.43802,Bar,Bars,Bar,4bf58dd8d48988d116941735
557,Boomerang Cocktail Lounge,4bbacdec98c7ef3b83863302,37.754191576284065,-122.47914397727983,Cocktail Bar,Cocktail Bars,Cocktail,4bf58dd8d48988d11e941735
558,Geneva Pub,4b6f91abf964a52037f62ce3,37.714242636406595,-122.43641500549084,Bar,Bars,Bar,4bf58dd8d48988d116941735
559,Sippin  Wine Bar,5594a168498ec339e9ee3a4e,37.72301655381866,-122.43628491699751,Lounge,Lounges,Lounge,4bf58dd8d48988d121941735
560,Que Syrah,4bf6c1645efe2d7fdab16734,37.73859938571756,-122.46852822019164,Wine Bar,Wine Bars,Wine Bar,4bf58dd8d48988d123941735
561,The Connection,4c12be52a9c220a1aa91549d,37.70974081507923,-122.4501494702126,Dive Bar,Dive Bars,Dive Bar,4bf58dd8d48988d118941735
562,United Irish Cultural Center,4a6cba4bf964a5206fd11fe3,37.73585877924533,-122.50303636090925,Event Space,Event Spaces,Event Space,4bf58dd8d48988d171941735
563,Grandma's Saloon,4b08ee17f964a520681323e3,37.74304400999787,-122.47704646359036,Dive Bar,Dive Bars,Dive Bar,4bf58dd8d48988d118941735
564,Lounge 2,4d8ef5f9cb9b224b70b89041,37.75331963382334,-122.47599932038837,Lounge,Lounges,Lounge,4bf58dd8d48988d121941735
565,78 Miramar Place,4d923218270e6ea8b33f64ff,37.719783,-122.457955,Beer Garden,Beer Gardens,Beer Garden,4bf58dd8d48988d117941735
566,Tiki Haven,4d844c6bf1e56ea8f8a9728a,37.75428962812687,-122.47815665849926,Tiki Bar,Tiki Bars,Tiki Bar,56aa371be4b08b9a8d57354d
567,White Cap,5a06582e0802d42aa2b760b6,37.74185587001411,-122.5048392552865,Cocktail Bar,Cocktail Bars,Cocktail,4bf58dd8d48988d11e941735
568,Philosopher's Club,49f35a25f964a520916a1fe3,37.740894965026094,-122.46553217465589,Bar,Bars,Bar,4bf58dd8d48988d116941735
569,Underdogs Too,5c170ddd5f68b9002c632e5c,37.741892,-122.504763,Taco Place,Taco Places,Tacos,4bf58dd8d48988d151941735
570,Glen Park Station,563ef865cd10b88df828028e,37.734188619314516,-122.43417077944143,Dive Bar,Dive Bars,Dive Bar,4bf58dd8d48988d118941735
571,Riptide,4d3c6a863ec9a35dfd644881,37.74168550676124,-122.50532321284336,Dive Bar,Dive Bars,Dive Bar,4bf58dd8d48988d118941735
572,Parkside Tavern,4a86114cf964a520480020e3,37.74267218305755,-122.48716050410408,Gastropub,Gastropubs,Gastropub,4bf58dd8d48988d155941735
573,Recovery Room,5adc0e021acf113ad0f6a9fa,37.725465862309946,-122.4343419070651,Bar,Bars,Bar,4bf58dd8d48988d116941735
574,After Hours,59d2e347237dee5208cbee53,37.742176320139876,-122.49894691565898,Bar,Bars,Bar,4bf58dd8d48988d116941735
575,Val's Restaurant and Lounge,4b552a7cf964a5206cdd27e3,37.69173055507953,-122.47129341624898,Steakhouse,Steakhouses,Steakhouse,4bf58dd8d48988d1cc941735
576,Voiz Karaoke,4b9352f6f964a520164034e3,37.74323505498939,-122.47107766653484,Karaoke Bar,Karaoke Bars,Karaoke,4bf58dd8d48988d120941735
577,The Dubliner,4a69315df964a520c2cb1fe3,37.737683802880035,-122.46956056412179,Pub,Pubs,Pub,4bf58dd8d48988d11b941735
578,Parkside Hookah,4c9316872bf7b60c8854680a,37.741585877747525,-122.47570317460121,Hookah Bar,Hookah Bars,Hookah Bar,4bf58dd8d48988d119941735
579,Vin Debut,5674ee88498e64d8f28af57d,37.74076964714903,-122.46580562928152,Wine Bar,Wine Bars,Wine Bar,4bf58dd8d48988d123941735
580,Fire Fly Sports Bar,4b724069f964a5209b752de3,37.75353906930099,-122.49028328559612,Bar,Bars,Bar,4bf58dd8d48988d116941735
581,Bottoms Up Bar & Lounge,4b03984ff964a520db4f22e3,37.723009877300576,-122.43621031743807,Bar,Bars,Bar,4bf58dd8d48988d116941735
582,Annex,4b79df46f964a52072172fe3,37.70596406555044,-122.46148076212567,Dive Bar,Dive Bars,Dive Bar,4bf58dd8d48988d118941735
583,The Ave Bar,4cb9db8c43ec6dcbb724a031,37.72454281455243,-122.45935827448322,Bar,Bars,Bar,4bf58dd8d48988d116941735
584,Ralston,4ea7a8efb8034ce4bced631f,37.72078770761517,-122.46923884720123,Speakeasy,Speakeasies,Speakeasy,4bf58dd8d48988d1d4941735
585,Last Stop,58d5bda42a19825836bb98bd,37.70671203483266,-122.45885215764186,Sports Bar,Sports Bars,Sports Bar,4bf58dd8d48988d11d941735
586,Fog City Hookah Bar & Grill,54b0e67b498e594f4ba5f6be,37.69005064289412,-122.46551293752027,Hookah Bar,Hookah Bars,Hookah Bar,4bf58dd8d48988d119941735
587,Mike's Liquors,4a0e082af964a520bb751fe3,37.717047624051986,-122.44069948494237,Liquor Store,Liquor Stores,Liquor Store,4bf58dd8d48988d186941735
588,Miraloma Club,429f9d80f964a520c6241fe3,37.743906019837034,-122.45366175740402,Dive Bar,Dive Bars,Dive Bar,4bf58dd8d48988d118941735
589,Friends Bar,4ae7ed0cf964a520dfad21e3,37.73168186307918,-122.44791211353864,Bar,Bars,Bar,4bf58dd8d48988d116941735
590,McCarthy's Irish Bar,510c7fa6e4b0ca91e900783d,37.74040241728515,-122.4665463457005,Pub,Pubs,Pub,4bf58dd8d48988d11b941735
591,The Dark Horse Inn,4ec020bbb8f7963bcdde0f6b,37.716127089376435,-122.44037320223659,Bar,Bars,Bar,4bf58dd8d48988d116941735
592,Rocks Den,565a5593498e67464ff1fb2d,37.7272603284223,-122.43283844792182,Sports Bar,Sports Bars,Sports Bar,4bf58dd8d48988d11d941735
593,Shannon Arms,4a60bfa1f964a52022c11fe3,37.743010129627564,-122.47596155308086,Pub,Pubs,Pub,4bf58dd8d48988d11b941735
594,OneUp Bar,546ffaaf498e44efc06cff7a,37.754357021306866,-122.47708023538158,Bar,Bars,Bar,4bf58dd8d48988d116941735
595,Costello's Four Deuces,4ada6b37f964a5206d2221e3,37.7422266969686,-122.49113081328775,Bar,Bars,Bar,4bf58dd8d48988d116941735
596,The Four Deuces,5251bac6498e62cb962b6c61,37.74223101224503,-122.49110628014726,Bar,Bars,Bar,4bf58dd8d48988d116941735
597,Witch Doctor's Lounge,5a0fc712286fda3f036346b0,37.720676,-122.43802,Bar,Bars,Bar,4bf58dd8d48988d116941735
598,Boomerang Cocktail Lounge,4bbacdec98c7ef3b83863302,37.754191576284065,-122.47914397727983,Cocktail Bar,Cocktail Bars,Cocktail,4bf58dd8d48988d11e941735
599,Geneva Pub,4b6f91abf964a52037f62ce3,37.714242636406595,-122.43641500549084,Bar,Bars,Bar,4bf58dd8d48988d116941735
600,Que Syrah,4bf6c1645efe2d7fdab16734,37.73859938571756,-122.46852822019164,Wine Bar,Wine Bars,Wine Bar,4bf58dd8d48988d123941735
601,The Connection,4c12be52a9c220a1aa91549d,37.70974081507923,-122.4501494702126,Dive Bar,Dive Bars,Dive Bar,4bf58dd8d48988d118941735
602,United Irish Cultural Center,4a6cba4bf964a5206fd11fe3,37.73585877924533,-122.50303636090925,Event Space,Event Spaces,Event Space,4bf58dd8d48988d171941735
603,Grandma's Saloon,4b08ee17f964a520681323e3,37.74304400999787,-122.47704646359036,Dive Bar,Dive Bars,Dive Bar,4bf58dd8d48988d118941735
604,78 Miramar Place,4d923218270e6ea8b33f64ff,37.719783,-122.457955,Beer Garden,Beer Gardens,Beer Garden,4bf58dd8d48988d117941735
605,85C Bakery Cafe - Stonestown,5b942774deb4950025220c76,37.72791847111096,-122.47628171618449,Bakery,Bakeries,Bakery,4bf58dd8d48988d16a941735
606,Boudin Bakery Café Stonestown,4aecaa99f964a52019ca21e3,37.728669,-122.476886,Bakery,Bakeries,Bakery,4bf58dd8d48988d16a941735
607,Krispy Kreme Doughnuts,49f3ecb0f964a520eb6a1fe3,37.688771,-122.471606,Donut Shop,Donut Shops,Donuts,4bf58dd8d48988d148941735
608,Sheng Kee Bakery,4b788040f964a52084d22ee3,37.69899594115916,-122.48220150046158,Bakery,Bakeries,Bakery,4bf58dd8d48988d16a941735
609,La Baguette,529d49c111d27cfebb6c8740,37.72716748968099,-122.47723824286889,Bakery,Bakeries,Bakery,4bf58dd8d48988d16a941735
610,Cocola Bakery,4b3fd429f964a520e3af25e3,37.72784218971036,-122.4767595204661,Bakery,Bakeries,Bakery,4bf58dd8d48988d16a941735
611,Noe Valley Bakery,5817b85138fa18081795a194,37.74056451440146,-122.46628414888933,Bakery,Bakeries,Bakery,4bf58dd8d48988d16a941735
612,Cafe Bakery & Restaurant,4ab81a99f964a520357c20e3,37.75417144724461,-122.4781683793777,Bakery,Bakeries,Bakery,4bf58dd8d48988d16a941735
613,Le Bread Express,57ba448b498e2dc8c6d2c251,37.728757,-122.477223,Bakery,Bakeries,Bakery,4bf58dd8d48988d16a941735
614,Mr. Bread,56a52b02498e66937df2494d,37.74303448217439,-122.47717087703009,Bakery,Bakeries,Bakery,4bf58dd8d48988d16a941735
615,Goldilocks,574cabe6498eaa071d281d6b,37.706713264409444,-122.45987176392525,Bakery,Bakeries,Bakery,4bf58dd8d48988d16a941735
616,Ambrosia Bakery,4b42ca2ff964a520e9d925e3,37.73168360422749,-122.4734619126952,Bakery,Bakeries,Bakery,4bf58dd8d48988d16a941735
617,Red Ribbon Bakeshop,457da3f2f964a5202d3f1fe3,37.697229787882,-122.46293190496694,Bakery,Bakeries,Bakery,4bf58dd8d48988d16a941735
618,Hilda's Mart and Bake Shop,4a58c8b8f964a520dbb71fe3,37.72251097057312,-122.43454860403548,Bakery,Bakeries,Bakery,4bf58dd8d48988d16a941735
619,T28 Bakery and Cafe,4af9013ff964a520cf1022e3,37.74255955704313,-122.48528384519466,Chinese Restaurant,Chinese Restaurants,Chinese,4bf58dd8d48988d145941735
620,Good Orchard Bakery,4f08d48be4b0803b69422aed,37.72339609803051,-122.43574523596273,Bakery,Bakeries,Bakery,4bf58dd8d48988d16a941735
621,Boss Bakery,5c02e7935ba046002c49e6fb,37.753704,-122.49087,Bakery,Bakeries,Bakery,4bf58dd8d48988d16a941735
622,Nothing Bundt Cakes,5790028ecd10259c409605b7,37.699752375389245,-122.48377150302076,Bakery,Bakeries,Bakery,4bf58dd8d48988d16a941735
623,Cafe Bakery,4e32f7af18a8efdb1753a5c0,37.75409663054946,-122.47834299637326,Bakery,Bakeries,Bakery,4bf58dd8d48988d16a941735
624,Rolling Out,4eea6f00f9ab8fc95f202984,37.742775160440196,-122.48475305140774,Café,Cafés,Café,4bf58dd8d48988d16d941735
625,A-1 Bakery,4bbf523e98f49521956bd263,37.72480202387042,-122.46064141432204,Bakery,Bakeries,Bakery,4bf58dd8d48988d16a941735
626,Kahve Diyarım,53c19b5a498eb5bf28f7e61f,37.771511083102396,37.837500608300246,Café,Cafés,Café,4bf58dd8d48988d16d941735
627,Kahve Diyarım,53c19b5a498eb5bf28f7e61f,37.771511083102396,37.837500608300246,Café,Cafés,Café,4bf58dd8d48988d16d941735
628,Marugame Udon,5a3b267d4940bc2abc94d088,37.72753502992446,-122.47614774426498,Udon Restaurant,Udon Restaurants,Udon,55a59bace4b013909087cb2a
629,In-N-Out Burger,457c6a6df964a520093f1fe3,37.68826935148615,-122.47197300195694,Burger Joint,Burger Joints,Burgers,4bf58dd8d48988d16c941735
630,Shihlin Taiwan Street Snacks 士林臺灣小吃,5b09e2e398fbfc002c028929,37.727817534627626,-122.47646649433597,Taiwanese Restaurant,Taiwanese Restaurants,Taiwanese,52af3b813cf9994f4e043c04
631,Blaze Pizza,55145ef3498e4d9691a639d5,37.727931,-122.476536,Pizza Place,Pizza Places,Pizza,4bf58dd8d48988d1ca941735
632,85C Bakery Cafe - Stonestown,5b942774deb4950025220c76,37.72791847111096,-122.47628171618449,Bakery,Bakeries,Bakery,4bf58dd8d48988d16a941735
633,McDonald's,4a8972e5f964a5200b0820e3,37.7264084,-122.4763127,Fast Food Restaurant,Fast Food Restaurants,Fast Food,4bf58dd8d48988d16e941735
634,Starbucks,4310fe80f964a52051271fe3,37.74474068,-122.4526744,Coffee Shop,Coffee Shops,Coffee Shop,4bf58dd8d48988d1e0931735
635,Starbucks,4abfc3d1f964a5200f9220e3,37.699575,-122.481762,Coffee Shop,Coffee Shops,Coffee Shop,4bf58dd8d48988d1e0931735
636,Marketplace Cafe,573b2c2e38faeff59fd2bb9a,37.726605654060464,-122.47750103473663,Café,Cafés,Café,4bf58dd8d48988d16d941735
637,Stonestown Galleria Food Court,4b7715bff964a520d27b2ee3,37.72803126482387,-122.47708797454834,Food Court,Food Courts,Food Court,4bf58dd8d48988d120951735
638,Peet's Coffee & Tea,5227b1b08bfdf21a788fc5a0,37.727715,-122.476555,Coffee Shop,Coffee Shops,Coffee Shop,4bf58dd8d48988d1e0931735
639,Philz Coffee,56eeb771498e0692c105a6f7,37.723478884185766,-122.45374876198406,Coffee Shop,Coffee Shops,Coffee Shop,4bf58dd8d48988d1e0931735
640,Original Joe's Westlake,56a2acbd498ee1a54d04a90b,37.70155964783083,-122.48549401760101,Italian Restaurant,Italian Restaurants,Italian,4bf58dd8d48988d110941735
641,Starbucks,49e262daf964a52012621fe3,37.73966759184441,-122.46727108843436,Coffee Shop,Coffee Shops,Coffee Shop,4bf58dd8d48988d1e0931735
642,Boudin Bakery Café Stonestown,4aecaa99f964a52019ca21e3,37.728669,-122.476886,Bakery,Bakeries,Bakery,4bf58dd8d48988d16a941735
643,Olive Garden,46d715faf964a5206c4a1fe3,37.72743193152167,-122.47621065614784,Italian Restaurant,Italian Restaurants,Italian,4bf58dd8d48988d110941735
644,Jollibee,4b14f8a6f964a5209ca723e3,37.69727551178855,-122.46374254371321,Fast Food Restaurant,Fast Food Restaurants,Fast Food,4bf58dd8d48988d16e941735
645,See's Candies,4b5ba39ff964a520db0c29e3,37.72787026212226,-122.47695621960317,Candy Store,Candy Stores,Candy Store,4bf58dd8d48988d117951735
646,"Andytown Roastery, Training Lab & Coffee Supply",58b76a25fc5a5f1dcd7b248d,37.742142085707165,-122.49856601193528,Coffee Shop,Coffee Shops,Coffee Shop,4bf58dd8d48988d1e0931735
647,Panda Express,51feb67c498ee2b1cc4f9071,37.69899267171932,-122.48228128326623,Chinese Restaurant,Chinese Restaurants,Chinese,4bf58dd8d48988d145941735
648,Dumpling Kitchen,4b78acfdf964a52063dd2ee3,37.74249006365133,-122.48705915184706,Dumpling Restaurant,Dumpling Restaurants,Dumplings,4bf58dd8d48988d108941735
649,Eggxotic,5adced10829b0c3e3ba14268,37.72786806401975,-122.47671050075766,Dessert Shop,Dessert Shops,Desserts,4bf58dd8d48988d1d0941735
650,House of Coffee,4ac90c72f964a5204bbe20e3,37.75389654518352,-122.48000750178221,Coffee Shop,Coffee Shops,Coffee Shop,4bf58dd8d48988d1e0931735
651,Rice Garden,4a90c961f964a520751920e3,37.73322125886823,-122.48990367235506,Chinese Restaurant,Chinese Restaurants,Chinese,4bf58dd8d48988d145941735
652,Kukje Deli & Sushi,557c9b63498efc1a4b9ab589,37.69454348561457,-122.47140103972231,Deli / Bodega,Delis / Bodegas,Deli / Bodega,4bf58dd8d48988d146941735
653,Andytown,58c5fda9c30f791c62a37beb,37.74167718755977,-122.50519325872216,Coffee Shop,Coffee Shops,Coffee Shop,4bf58dd8d48988d1e0931735
654,McDonald's,4a60277ff964a520b9c01fe3,37.723494,-122.455453,Fast Food Restaurant,Fast Food Restaurants,Fast Food,4bf58dd8d48988d16e941735
655,Phở Huỹnh Hiệp 3 - Kevin's Noodle House,4a7ddc63f964a520f1ef1fe3,37.698173548515314,-122.4815606515754,Vietnamese Restaurant,Vietnamese Restaurants,Vietnamese,4bf58dd8d48988d14a941735
656,Panda Express,47f191bdf964a5208d4e1fe3,37.72785431561873,-122.47691789721206,Chinese Restaurant,Chinese Restaurants,Chinese,4bf58dd8d48988d145941735
657,Boulevard Cafe,49e9de32f964a52006661fe3,37.70395577861726,-122.4753953408699,Diner,Diners,Diner,4bf58dd8d48988d147941735
658,Yi Fang Taiwan Fruit Tea,5c15df1c838e59002cb89455,37.728126,-122.477218,Bubble Tea Shop,Bubble Tea Shops,Bubble Tea,52e81612bcbc57f1066b7a0c
659,Stonestown Farmers Market,4ac8eec6f964a52062bd20e3,37.730126917341096,-122.47915000470392,Farmers Market,Farmers Markets,Farmer's Market,4bf58dd8d48988d1fa941735
660,Banana Island,43c50166f964a5205f2d1fe3,37.69979519435566,-122.48341784352344,Malay Restaurant,Malay Restaurants,Malay,4bf58dd8d48988d156941735
661,La Corneta,45052b29f964a520e5381fe3,37.733913724338414,-122.43406148207286,Mexican Restaurant,Mexican Restaurants,Mexican,4bf58dd8d48988d1c1941735
662,Home,54dfed34498edb2219438f71,37.7543481049095,-122.47697284054232,Coffee Shop,Coffee Shops,Coffee Shop,4bf58dd8d48988d1e0931735
663,Starbucks,4a45130cf964a520bca71fe3,37.72795856,-122.4768031,Coffee Shop,Coffee Shops,Coffee Shop,4bf58dd8d48988d1e0931735
664,Peet's Coffee & Tea,5070aafd498e62f9b503da5e,37.733589,-122.489709,Coffee Shop,Coffee Shops,Coffee Shop,4bf58dd8d48988d1e0931735
665,McDonald's,4b0f6683f964a520066223e3,37.69203,-122.471282,Fast Food Restaurant,Fast Food Restaurants,Fast Food,4bf58dd8d48988d16e941735
666,Gene's Liquor & Deli,4b8f494ff964a520715033e3,37.742384443021436,-122.489760185854,Liquor Store,Liquor Stores,Liquor Store,4bf58dd8d48988d186941735
667,Espresso Bar,573b2c2f38faeff59fd2c102,37.72655898181562,-122.47753322124481,Café,Cafés,Café,4bf58dd8d48988d16d941735
668,Peet's Coffee & Tea,4a65e91bf964a520b2c71fe3,37.740337,-122.466617,Coffee Shop,Coffee Shops,Coffee Shop,4bf58dd8d48988d1e0931735
669,Leaping Lemur Café,4b65edd2f964a520f9082be3,37.733188267410355,-122.50323951244354,Café,Cafés,Café,4bf58dd8d48988d16d941735
670,Chipotle Mexican Grill,4a95bfc4f964a520782420e3,37.70144292177419,-122.48255535575463,Mexican Restaurant,Mexican Restaurants,Mexican,4bf58dd8d48988d1c1941735
671,Natural Sensations,4ad4e412f964a52079fc20e3,37.72202083586753,-122.4786118142431,Juice Bar,Juice Bars,Juice Bar,4bf58dd8d48988d112941735
672,Krispy Kreme Doughnuts,49f3ecb0f964a520eb6a1fe3,37.688771,-122.471606,Donut Shop,Donut Shops,Donuts,4bf58dd8d48988d148941735
673,Starbucks,4d14d53085fc6dcb9b459b4e,37.697357,-122.46297,Coffee Shop,Coffee Shops,Coffee Shop,4bf58dd8d48988d1e0931735
674,Golden Island Cafe,4a7501d4f964a52042e01fe3,37.7543180370544,-122.47772634029388,Dessert Shop,Dessert Shops,Desserts,4bf58dd8d48988d1d0941735
675,One Waan Thai Restaurant,5823c2cdffb2193e58703e34,37.733184366884934,-122.43438600009608,Restaurant,Restaurants,Restaurant,4bf58dd8d48988d1c4941735
676,Cafe Rosso,4aa0126af964a5202b3e20e3,37.722881250301704,-122.48044244333092,Café,Cafés,Café,4bf58dd8d48988d16d941735
677,Sheng Kee Bakery,4b788040f964a52084d22ee3,37.69899594115916,-122.48220150046158,Bakery,Bakeries,Bakery,4bf58dd8d48988d16a941735
678,Tiki Haven,4d844c6bf1e56ea8f8a9728a,37.75428962812687,-122.47815665849926,Tiki Bar,Tiki Bars,Tiki Bar,56aa371be4b08b9a8d57354d
679,White Cap,5a06582e0802d42aa2b760b6,37.74185587001411,-122.5048392552865,Cocktail Bar,Cocktail Bars,Cocktail,4bf58dd8d48988d11e941735
680,Sunset Reservoir Brewing Company,53e281f0498ec42c8bc221b1,37.753874496325835,-122.48237977993593,Brewery,Breweries,Brewery,50327c8591d4c4b30a586d5d
681,Kim's Palace,4dbcb83c4b222080d39a027b,37.685178,-122.480398,Other Nightlife,Other Nightlife,Nightlife,4bf58dd8d48988d11a941735
682,Philosopher's Club,49f35a25f964a520916a1fe3,37.740894965026094,-122.46553217465589,Bar,Bars,Bar,4bf58dd8d48988d116941735
683,Underdogs Too,5c170ddd5f68b9002c632e5c,37.741892,-122.504763,Taco Place,Taco Places,Tacos,4bf58dd8d48988d151941735
684,Glen Park Station,563ef865cd10b88df828028e,37.734188619314516,-122.43417077944143,Dive Bar,Dive Bars,Dive Bar,4bf58dd8d48988d118941735
685,Riptide,4d3c6a863ec9a35dfd644881,37.74168550676124,-122.50532321284336,Dive Bar,Dive Bars,Dive Bar,4bf58dd8d48988d118941735
686,Parkside Tavern,4a86114cf964a520480020e3,37.74267218305755,-122.48716050410408,Gastropub,Gastropubs,Gastropub,4bf58dd8d48988d155941735
687,Recovery Room,5adc0e021acf113ad0f6a9fa,37.725465862309946,-122.4343419070651,Bar,Bars,Bar,4bf58dd8d48988d116941735
688,After Hours,59d2e347237dee5208cbee53,37.742176320139876,-122.49894691565898,Bar,Bars,Bar,4bf58dd8d48988d116941735
689,Val's Restaurant and Lounge,4b552a7cf964a5206cdd27e3,37.69173055507953,-122.47129341624898,Steakhouse,Steakhouses,Steakhouse,4bf58dd8d48988d1cc941735
690,Voiz Karaoke,4b9352f6f964a520164034e3,37.74323505498939,-122.47107766653484,Karaoke Bar,Karaoke Bars,Karaoke,4bf58dd8d48988d120941735
691,The Dubliner,4a69315df964a520c2cb1fe3,37.737683802880035,-122.46956056412179,Pub,Pubs,Pub,4bf58dd8d48988d11b941735
692,Tselogs,56419548498ea7da4bc2641b,37.70686423060626,-122.45885464229286,Lounge,Lounges,Lounge,4bf58dd8d48988d121941735
693,Parkside Hookah,4c9316872bf7b60c8854680a,37.741585877747525,-122.47570317460121,Hookah Bar,Hookah Bars,Hookah Bar,4bf58dd8d48988d119941735
694,Vin Debut,5674ee88498e64d8f28af57d,37.74076964714903,-122.46580562928152,Wine Bar,Wine Bars,Wine Bar,4bf58dd8d48988d123941735
695,Fire Fly Sports Bar,4b724069f964a5209b752de3,37.75353906930099,-122.49028328559612,Bar,Bars,Bar,4bf58dd8d48988d116941735
696,Bottoms Up Bar & Lounge,4b03984ff964a520db4f22e3,37.723009877300576,-122.43621031743807,Bar,Bars,Bar,4bf58dd8d48988d116941735
697,Annex,4b79df46f964a52072172fe3,37.70596406555044,-122.46148076212567,Dive Bar,Dive Bars,Dive Bar,4bf58dd8d48988d118941735
698,The Ave Bar,4cb9db8c43ec6dcbb724a031,37.72454281455243,-122.45935827448322,Bar,Bars,Bar,4bf58dd8d48988d116941735
699,Ralston,4ea7a8efb8034ce4bced631f,37.72078770761517,-122.46923884720123,Speakeasy,Speakeasies,Speakeasy,4bf58dd8d48988d1d4941735
700,Last Stop,58d5bda42a19825836bb98bd,37.70671203483266,-122.45885215764186,Sports Bar,Sports Bars,Sports Bar,4bf58dd8d48988d11d941735
701,Fog City Hookah Bar & Grill,54b0e67b498e594f4ba5f6be,37.69005064289412,-122.46551293752027,Hookah Bar,Hookah Bars,Hookah Bar,4bf58dd8d48988d119941735
702,Mike's Liquors,4a0e082af964a520bb751fe3,37.717047624051986,-122.44069948494237,Liquor Store,Liquor Stores,Liquor Store,4bf58dd8d48988d186941735
703,Miraloma Club,429f9d80f964a520c6241fe3,37.743906019837034,-122.45366175740402,Dive Bar,Dive Bars,Dive Bar,4bf58dd8d48988d118941735
704,Friends Bar,4ae7ed0cf964a520dfad21e3,37.73168186307918,-122.44791211353864,Bar,Bars,Bar,4bf58dd8d48988d116941735
705,McCarthy's Irish Bar,510c7fa6e4b0ca91e900783d,37.74040241728515,-122.4665463457005,Pub,Pubs,Pub,4bf58dd8d48988d11b941735
706,The Lister Bar,54cca8ba498ea0f008da6b4b,37.71760715080541,-122.47383121921574,Nightclub,Nightclubs,Nightclub,4bf58dd8d48988d11f941735
707,The Dark Horse Inn,4ec020bbb8f7963bcdde0f6b,37.716127089376435,-122.44037320223659,Bar,Bars,Bar,4bf58dd8d48988d116941735
708,Rocks Den,565a5593498e67464ff1fb2d,37.7272603284223,-122.43283844792182,Sports Bar,Sports Bars,Sports Bar,4bf58dd8d48988d11d941735
709,Shannon Arms,4a60bfa1f964a52022c11fe3,37.743010129627564,-122.47596155308086,Pub,Pubs,Pub,4bf58dd8d48988d11b941735
710,OneUp Bar,546ffaaf498e44efc06cff7a,37.754357021306866,-122.47708023538158,Bar,Bars,Bar,4bf58dd8d48988d116941735
711,Costello's Four Deuces,4ada6b37f964a5206d2221e3,37.7422266969686,-122.49113081328775,Bar,Bars,Bar,4bf58dd8d48988d116941735
712,The Four Deuces,5251bac6498e62cb962b6c61,37.74223101224503,-122.49110628014726,Bar,Bars,Bar,4bf58dd8d48988d116941735
713,Witch Doctor's Lounge,5a0fc712286fda3f036346b0,37.720676,-122.43802,Bar,Bars,Bar,4bf58dd8d48988d116941735
714,Boomerang Cocktail Lounge,4bbacdec98c7ef3b83863302,37.754191576284065,-122.47914397727983,Cocktail Bar,Cocktail Bars,Cocktail,4bf58dd8d48988d11e941735
715,Geneva Pub,4b6f91abf964a52037f62ce3,37.714242636406595,-122.43641500549084,Bar,Bars,Bar,4bf58dd8d48988d116941735
716,Sippin  Wine Bar,5594a168498ec339e9ee3a4e,37.72301655381866,-122.43628491699751,Lounge,Lounges,Lounge,4bf58dd8d48988d121941735
717,Que Syrah,4bf6c1645efe2d7fdab16734,37.73859938571756,-122.46852822019164,Wine Bar,Wine Bars,Wine Bar,4bf58dd8d48988d123941735
718,The Connection,4c12be52a9c220a1aa91549d,37.70974081507923,-122.4501494702126,Dive Bar,Dive Bars,Dive Bar,4bf58dd8d48988d118941735
719,United Irish Cultural Center,4a6cba4bf964a5206fd11fe3,37.73585877924533,-122.50303636090925,Event Space,Event Spaces,Event Space,4bf58dd8d48988d171941735
720,Grandma's Saloon,4b08ee17f964a520681323e3,37.74304400999787,-122.47704646359036,Dive Bar,Dive Bars,Dive Bar,4bf58dd8d48988d118941735
721,Lounge 2,4d8ef5f9cb9b224b70b89041,37.75331963382334,-122.47599932038837,Lounge,Lounges,Lounge,4bf58dd8d48988d121941735
722,78 Miramar Place,4d923218270e6ea8b33f64ff,37.719783,-122.457955,Beer Garden,Beer Gardens,Beer Garden,4bf58dd8d48988d117941735
723,Tiki Haven,4d844c6bf1e56ea8f8a9728a,37.75428962812687,-122.47815665849926,Tiki Bar,Tiki Bars,Tiki Bar,56aa371be4b08b9a8d57354d
724,White Cap,5a06582e0802d42aa2b760b6,37.74185587001411,-122.5048392552865,Cocktail Bar,Cocktail Bars,Cocktail,4bf58dd8d48988d11e941735
725,Philosopher's Club,49f35a25f964a520916a1fe3,37.740894965026094,-122.46553217465589,Bar,Bars,Bar,4bf58dd8d48988d116941735
726,Underdogs Too,5c170ddd5f68b9002c632e5c,37.741892,-122.504763,Taco Place,Taco Places,Tacos,4bf58dd8d48988d151941735
727,Glen Park Station,563ef865cd10b88df828028e,37.734188619314516,-122.43417077944143,Dive Bar,Dive Bars,Dive Bar,4bf58dd8d48988d118941735
728,Riptide,4d3c6a863ec9a35dfd644881,37.74168550676124,-122.50532321284336,Dive Bar,Dive Bars,Dive Bar,4bf58dd8d48988d118941735
729,Parkside Tavern,4a86114cf964a520480020e3,37.74267218305755,-122.48716050410408,Gastropub,Gastropubs,Gastropub,4bf58dd8d48988d155941735
730,Recovery Room,5adc0e021acf113ad0f6a9fa,37.725465862309946,-122.4343419070651,Bar,Bars,Bar,4bf58dd8d48988d116941735
731,After Hours,59d2e347237dee5208cbee53,37.742176320139876,-122.49894691565898,Bar,Bars,Bar,4bf58dd8d48988d116941735
732,Val's Restaurant and Lounge,4b552a7cf964a5206cdd27e3,37.69173055507953,-122.47129341624898,Steakhouse,Steakhouses,Steakhouse,4bf58dd8d48988d1cc941735
733,Voiz Karaoke,4b9352f6f964a520164034e3,37.74323505498939,-122.47107766653484,Karaoke Bar,Karaoke Bars,Karaoke,4bf58dd8d48988d120941735
734,The Dubliner,4a69315df964a520c2cb1fe3,37.737683802880035,-122.46956056412179,Pub,Pubs,Pub,4bf58dd8d48988d11b941735
735,Parkside Hookah,4c9316872bf7b60c8854680a,37.741585877747525,-122.47570317460121,Hookah Bar,Hookah Bars,Hookah Bar,4bf58dd8d48988d119941735
736,Vin Debut,5674ee88498e64d8f28af57d,37.74076964714903,-122.46580562928152,Wine Bar,Wine Bars,Wine Bar,4bf58dd8d48988d123941735
737,Fire Fly Sports Bar,4b724069f964a5209b752de3,37.75353906930099,-122.49028328559612,Bar,Bars,Bar,4bf58dd8d48988d116941735
738,Bottoms Up Bar & Lounge,4b03984ff964a520db4f22e3,37.723009877300576,-122.43621031743807,Bar,Bars,Bar,4bf58dd8d48988d116941735
739,Annex,4b79df46f964a52072172fe3,37.70596406555044,-122.46148076212567,Dive Bar,Dive Bars,Dive Bar,4bf58dd8d48988d118941735
740,The Ave Bar,4cb9db8c43ec6dcbb724a031,37.72454281455243,-122.45935827448322,Bar,Bars,Bar,4bf58dd8d48988d116941735
